[
  {
    "country": "United States", 
    "id": "4eefac5cb8f76a24a7b12202", 
    "latitude": 40.7328198446546, 
    "locality": "New York", 
    "longitude": -73.9981126785278, 
    "name": "Sticky's Finger Joint", 
    "phone": "(212) 777-7131", 
    "postal_code": "10011", 
    "region": "NY", 
    "street_address": "31 W. 8th St.", 
    "website": ""
  }, 
  {
    "country": "United States", 
    "id": "4fb6aeabe4b02861a894f317", 
    "latitude": 40.7696217516936, 
    "locality": "New York", 
    "longitude": -73.9640255123026, 
    "name": "Caf\u00e9 7", 
    "phone": null, 
    "postal_code": "10021", 
    "region": "NY", 
    "street_address": "725 Park Ave. 7th Floor", 
    "website": ""
  }, 
  {
    "country": "United States", 
    "id": "4f1227d9e4b03856f12a915d", 
    "latitude": 40.7224766168908, 
    "locality": "New York", 
    "longitude": -73.9949026848222, 
    "name": "232 Mott", 
    "phone": null, 
    "postal_code": "10012", 
    "region": "NY", 
    "street_address": "232 Mott St.", 
    "website": ""
  }, 
  {
    "country": "United States", 
    "id": "51ddfccf498eefb41d65b1f1", 
    "latitude": 40.757635, 
    "locality": "New York", 
    "longitude": -73.985828, 
    "name": "Hard Rock Cafe,New York", 
    "phone": null, 
    "postal_code": "", 
    "region": "NY", 
    "street_address": "", 
    "website": ""
  }, 
  {
    "country": "United States", 
    "id": "4d71199c783f8cfa4efae1d6", 
    "latitude": 40.713705, 
    "locality": "New York", 
    "longitude": -73.990162, 
    "name": "Lo Mein/Noodles Cart", 
    "phone": null, 
    "postal_code": "", 
    "region": "NY", 
    "street_address": "Rutgers St.", 
    "website": ""
  }, 
  {
    "country": "United States", 
    "id": "3fd66200f964a520b1e71ee3", 
    "latitude": 40.7605955351289, 
    "locality": "New York", 
    "longitude": -73.9838781522501, 
    "name": "The Playwright Tavern", 
    "phone": "(212) 262-9263", 
    "postal_code": "10019", 
    "region": "NY", 
    "street_address": "202 W. 49th St.", 
    "website": "http://playwrighttavern.com"
  }, 
  {
    "country": "United States", 
    "id": "4ae77a1bf964a520b6ab21e3", 
    "latitude": 40.736897, 
    "locality": "New York", 
    "longitude": -73.9874643087387, 
    "name": "Paul & Jimmy's", 
    "phone": "(212) 475-9540", 
    "postal_code": "10003", 
    "region": "NY", 
    "street_address": "123 E. 18th St.", 
    "website": ""
  }, 
  {
    "country": "United States", 
    "id": "4c265589a852c9285b77e66c", 
    "latitude": 40.764903478283, 
    "locality": "New York", 
    "longitude": -73.9879184500926, 
    "name": "Subway", 
    "phone": "(212) 245-0086", 
    "postal_code": "10019", 
    "region": "NY", 
    "street_address": "790 9th Ave.", 
    "website": "http://subwaynow.com/Order/Order.aspx?VendorId=605"
  }, 
  {
    "country": "United States", 
    "id": "4ebbe4162c5bf3fb892c6985", 
    "latitude": 40.7499052677574, 
    "locality": "New York", 
    "longitude": -73.9770427390049, 
    "name": "Bagel Express", 
    "phone": "", 
    "postal_code": "10016", 
    "region": "NY", 
    "street_address": "349 Lexington Ave.", 
    "website": ""
  }, 
  {
    "country": "United States", 
    "id": "4c102382b93cc9b67c4c56e0", 
    "latitude": 40.7237810580787, 
    "locality": "New York", 
    "longitude": -74.0055650601257, 
    "name": "Artifakt Bar & Lounge", 
    "phone": null, 
    "postal_code": "10013", 
    "region": "NY", 
    "street_address": "54 Watts St.", 
    "website": ""
  }, 
  {
    "country": "United States", 
    "id": "4f32aaf019836c91c7ee122d", 
    "latitude": 40.72308, 
    "locality": "New York", 
    "longitude": -73.993796, 
    "name": "M and R Bar and Dining Room", 
    "phone": "(212) 226-0559", 
    "postal_code": "", 
    "region": "NY", 
    "street_address": "264 Elizabeth St.", 
    "website": ""
  }, 
  {
    "country": "United States", 
    "id": "4e1c78a06284ae9cf27b9100", 
    "latitude": 40.7879892925986, 
    "locality": "New York", 
    "longitude": -73.9766295072408, 
    "name": "Mama's Famous Pizza & Burgers", 
    "phone": "", 
    "postal_code": "10024", 
    "region": "NY", 
    "street_address": "2345 Broadway", 
    "website": ""
  }, 
  {
    "country": "United States", 
    "id": "4f325e0f19836c91c7d0d7fc", 
    "latitude": 40.710499, 
    "locality": "New York", 
    "longitude": -74.015903, 
    "name": "Zen", 
    "phone": "(212) 432-3634", 
    "postal_code": "", 
    "region": "NY", 
    "street_address": "311 S. End Ave.", 
    "website": ""
  }, 
  {
    "country": "United States", 
    "id": "4f327c9f19836c91c7dc8ba8", 
    "latitude": 40.770488, 
    "locality": "New York", 
    "longitude": -73.970204, 
    "name": "La Houppa Restaurant", 
    "phone": "(212) 317-1999", 
    "postal_code": "", 
    "region": "NY", 
    "street_address": "26 E. 64th St.", 
    "website": ""
  }, 
  {
    "country": "United States", 
    "id": "4f3265a119836c91c7d3c6d1", 
    "latitude": 40.756051, 
    "locality": "New York", 
    "longitude": -73.990703, 
    "name": "Big Mama Sushi", 
    "phone": "(212) 695-4080", 
    "postal_code": "", 
    "region": "NY", 
    "street_address": "306 W. 40th St.", 
    "website": ""
  }, 
  {
    "country": "United States", 
    "id": "4b1e695ff964a520ad1924e3", 
    "latitude": 40.7950064655106, 
    "locality": "New York", 
    "longitude": -73.9716419594254, 
    "name": "Dunkin Donuts", 
    "phone": null, 
    "postal_code": "10025", 
    "region": "NY", 
    "street_address": "2568 Broadway", 
    "website": "http://www.dunkindonuts.com"
  }, 
  {
    "country": "United States", 
    "id": "4c8d644cf87e224bb3643d05", 
    "latitude": 40.7410034, 
    "locality": "New York", 
    "longitude": -73.97846981, 
    "name": "Basal Deli & Grocery", 
    "phone": "(212) 679-4555", 
    "postal_code": "10016", 
    "region": "NY", 
    "street_address": "493 2nd Ave.", 
    "website": ""
  }, 
  {
    "country": "United States", 
    "id": "4ad74911f964a5203f0921e3", 
    "latitude": 40.7401645592325, 
    "locality": "New York", 
    "longitude": -74.0056281832921, 
    "name": "Bill's Bar & Burger", 
    "phone": "(212) 414-3003", 
    "postal_code": "10014", 
    "region": "NY", 
    "street_address": "22 9th Ave.", 
    "website": "http://billsbarandburger.com"
  }, 
  {
    "country": "United States", 
    "id": "4c62d76879d1e21e5b10d715", 
    "latitude": 40.7916867018076, 
    "locality": "New York", 
    "longitude": -73.9440393447876, 
    "name": "Kentucky Fried Chicken", 
    "phone": "(212) 423-0599", 
    "postal_code": "10029", 
    "region": "NY", 
    "street_address": "1922 3rd Ave.", 
    "website": ""
  }, 
  {
    "country": "United States", 
    "id": "4ac4cc5df964a520059f20e3", 
    "latitude": 40.7539928423255, 
    "locality": "New York", 
    "longitude": -73.975774344243, 
    "name": "Hatsuhana Park", 
    "phone": "(212) 661-3400", 
    "postal_code": "10017", 
    "region": "NY", 
    "street_address": "237 Park Ave.", 
    "website": "http://www.hatsuhanaparkavenyc.com"
  }, 
  {
    "country": "United States", 
    "id": "4b0b6ac5f964a520433123e3", 
    "latitude": 40.7716194535216, 
    "locality": "New York", 
    "longitude": -73.959089296943, 
    "name": "Bistro Le Steak", 
    "phone": "(212) 517-3800", 
    "postal_code": "10021", 
    "region": "NY", 
    "street_address": "1309 3rd Ave.", 
    "website": ""
  }, 
  {
    "country": "United States", 
    "id": "4bdbb935c79cc928264a84e9", 
    "latitude": 40.778809, 
    "locality": "New York", 
    "longitude": -73.955762, 
    "name": "The Luxurey Sweet Penthouse", 
    "phone": null, 
    "postal_code": "10028", 
    "region": "NY", 
    "street_address": "1264 Lexington Ave.", 
    "website": ""
  }, 
  {
    "country": "United States", 
    "id": "4fd4368ce4b0a8f5716e88e3", 
    "latitude": 40.8023223876953, 
    "locality": "New York", 
    "longitude": -73.944953918457, 
    "name": "private brazillian party. dig it", 
    "phone": null, 
    "postal_code": "10035", 
    "region": "NY", 
    "street_address": "", 
    "website": ""
  }, 
  {
    "country": "United States", 
    "id": "3fd66200f964a5209fe91ee3", 
    "latitude": 40.716816, 
    "locality": "New York", 
    "longitude": -74.008647, 
    "name": "Duane Park Restaurant & Lounge", 
    "phone": "(212) 732-5555", 
    "postal_code": "10013", 
    "region": "NY", 
    "street_address": "157 Duane St.", 
    "website": "http://www.duaneparknyc.com"
  }, 
  {
    "country": "United States", 
    "id": "4bf34b8d6a31d13a5c8e942e", 
    "latitude": 40.8274233524822, 
    "locality": "New York", 
    "longitude": -73.9494747942279, 
    "name": "147th Street Deli", 
    "phone": null, 
    "postal_code": "", 
    "region": "NY", 
    "street_address": "", 
    "website": ""
  }, 
  {
    "country": "United States", 
    "id": "4e4e4528bd4101d0d7a67782", 
    "latitude": 40.7147888899523, 
    "locality": "New York", 
    "longitude": -74.0078489577968, 
    "name": "Baskin-Robbins", 
    "phone": "(212) 577-7550", 
    "postal_code": "10007", 
    "region": "NY", 
    "street_address": "321 Broadway", 
    "website": "http://www.baskinrobbins.com"
  }, 
  {
    "country": "United States", 
    "id": "49ef4c99f964a52092681fe3", 
    "latitude": 40.774626, 
    "locality": "New York", 
    "longitude": -73.959236, 
    "name": "Hale & Hearty", 
    "phone": "(212) 249-7100", 
    "postal_code": "10075", 
    "region": "NY", 
    "street_address": "1129 Lexington Ave.", 
    "website": ""
  }, 
  {
    "country": "United States", 
    "id": "4f32459119836c91c7c73c40", 
    "latitude": 40.729603, 
    "locality": "New York", 
    "longitude": -73.988218, 
    "name": "Col Legno Restaurant", 
    "phone": "(212) 777-4650", 
    "postal_code": "", 
    "region": "NY", 
    "street_address": "231 E. 9th St.", 
    "website": ""
  }, 
  {
    "country": "United States", 
    "id": "501b1b55e4b02f1fd37b9f9a", 
    "latitude": 40.7288595234802, 
    "locality": "New York", 
    "longitude": -73.9874535906065, 
    "name": "Fresco", 
    "phone": "", 
    "postal_code": "10003", 
    "region": "NY", 
    "street_address": "", 
    "website": ""
  }, 
  {
    "country": "United States", 
    "id": "4dcbd851ae60f2054417492a", 
    "latitude": 40.755515, 
    "locality": "New York", 
    "longitude": -73.988171, 
    "name": "Coffee Cart", 
    "phone": null, 
    "postal_code": "10018", 
    "region": "NY", 
    "street_address": "40th St.", 
    "website": ""
  }, 
  {
    "country": "United States", 
    "id": "50837291e4b0e99d0bfd7a30", 
    "latitude": 40.7308264757037, 
    "locality": "New York", 
    "longitude": -73.9830172823506, 
    "name": "The Delancey", 
    "phone": null, 
    "postal_code": "10002", 
    "region": "NY", 
    "street_address": "", 
    "website": ""
  }, 
  {
    "country": "United States", 
    "id": "4b988004f964a520cc4435e3", 
    "latitude": 40.7877234139684, 
    "locality": "New York", 
    "longitude": -73.9435795760535, 
    "name": "Star Gourmet Deli - 2000 N.Y. Deli", 
    "phone": "(212) 426-9591", 
    "postal_code": "10029", 
    "region": "NY", 
    "street_address": "2000 2nd Ave.", 
    "website": ""
  }, 
  {
    "country": "United States", 
    "id": "4a88d39cf964a520a90720e3", 
    "latitude": 40.759398, 
    "locality": "New York", 
    "longitude": -73.965505, 
    "name": "Pita Grill", 
    "phone": "(212) 750-1122", 
    "postal_code": "10022", 
    "region": "NY", 
    "street_address": "1083 2nd Ave.", 
    "website": "http://www.orderpitagrill.com"
  }, 
  {
    "country": "United States", 
    "id": "49be9addf964a520c4541fe3", 
    "latitude": 40.7372829060435, 
    "locality": "New York", 
    "longitude": -73.9909084453074, 
    "name": "Chop't Creative Salad", 
    "phone": "(646) 336-5527", 
    "postal_code": "10003", 
    "region": "NY", 
    "street_address": "24 E. 17th St.", 
    "website": "http://www.choptsalad.com"
  }, 
  {
    "country": "United States", 
    "id": "4d489e849544a093e2ac1fe7", 
    "latitude": 40.7554424535776, 
    "locality": "New York", 
    "longitude": -73.9682097168303, 
    "name": "La Pasta Presto", 
    "phone": "(212) 754-4880", 
    "postal_code": "10022", 
    "region": "NY", 
    "street_address": "959 2nd Ave.", 
    "website": ""
  }, 
  {
    "country": "United States", 
    "id": "4a4a642cf964a520bdab1fe3", 
    "latitude": 40.85109986, 
    "locality": "New York", 
    "longitude": -73.939612, 
    "name": "Sushi Yu II", 
    "phone": "(212) 781-8833", 
    "postal_code": "10033", 
    "region": "NY", 
    "street_address": "827 W. 181st St.", 
    "website": ""
  }, 
  {
    "country": "United States", 
    "id": "506631d2e4b0058e9c5948d5", 
    "latitude": 40.740995, 
    "locality": "New York", 
    "longitude": -74.007682, 
    "name": "4 Food (W)holeburgers", 
    "phone": null, 
    "postal_code": "10014", 
    "region": "NY", 
    "street_address": "", 
    "website": ""
  }, 
  {
    "country": "United States", 
    "id": "4c3abbc9b2289521d209f70c", 
    "latitude": 40.7337538374333, 
    "locality": "New York", 
    "longitude": -74.0062823676079, 
    "name": "Starbucks", 
    "phone": "(646) 486-0524", 
    "postal_code": "10014", 
    "region": "NY", 
    "street_address": "518 Hudson St.", 
    "website": "http://www.starbucks.com"
  }, 
  {
    "country": "United States", 
    "id": "5228080e11d25760463ba3a9", 
    "latitude": 40.7574373418595, 
    "locality": "New York", 
    "longitude": -73.9815595338585, 
    "name": "The Biggest Little Bar", 
    "phone": null, 
    "postal_code": "10036", 
    "region": "NY", 
    "street_address": "59 W. 46th St.", 
    "website": ""
  }, 
  {
    "country": "United States", 
    "id": "4f4f8468e4b06597b786ca2e", 
    "latitude": 40.7439136903778, 
    "locality": "New York", 
    "longitude": -73.9891752867701, 
    "name": "Toshi's Living Room", 
    "phone": "(212) 679-8002", 
    "postal_code": "10010", 
    "region": "NY", 
    "street_address": "1141 Broadway", 
    "website": "http://www.toshislivingroom.com"
  }, 
  {
    "country": "United States", 
    "id": "3fd66200f964a520bce61ee3", 
    "latitude": 40.717392, 
    "locality": "New York", 
    "longitude": -73.998491, 
    "name": "La Bella Ferrara", 
    "phone": "(212) 966-7867", 
    "postal_code": "10013", 
    "region": "NY", 
    "street_address": "110 Mulberry St.", 
    "website": ""
  }, 
  {
    "country": "United States", 
    "id": "4f3d0e577b0c7388a5b620be", 
    "latitude": 40.7369497006532, 
    "locality": "New York", 
    "longitude": -73.991482257843, 
    "name": "Joe City", 
    "phone": null, 
    "postal_code": "10003", 
    "region": "NY", 
    "street_address": "13 E. 16th St. 6th Fl", 
    "website": ""
  }, 
  {
    "country": "United States", 
    "id": "5013520ae4b0dbe157f818d1", 
    "latitude": 40.737587862637, 
    "locality": "New York", 
    "longitude": -73.9911437404581, 
    "name": "The Square", 
    "phone": null, 
    "postal_code": "10003", 
    "region": "NY", 
    "street_address": "", 
    "website": ""
  }, 
  {
    "country": "United States", 
    "id": "51e479cf498ecef5cc819774", 
    "latitude": 40.721175, 
    "locality": "New York", 
    "longitude": -73.994683, 
    "name": "Kam Man Hibachi - Cafe", 
    "phone": "(212) 574-4885", 
    "postal_code": "10013", 
    "region": "NY", 
    "street_address": "200 Canal St.", 
    "website": ""
  }, 
  {
    "country": "United States", 
    "id": "50f91d1845b0c12d399024ed", 
    "latitude": 40.7251447857735, 
    "locality": "New York", 
    "longitude": -73.9977693557739, 
    "name": "Jan Frank", 
    "phone": "(212) 982-1298", 
    "postal_code": "10012", 
    "region": "NY", 
    "street_address": "Bond St. Re", 
    "website": ""
  }, 
  {
    "country": "United States", 
    "id": "4ea46e0d77c8d0ce5ec86611", 
    "latitude": 40.72735, 
    "locality": "New York", 
    "longitude": -73.978161, 
    "name": "Friends And Queso", 
    "phone": null, 
    "postal_code": "10009", 
    "region": "NY", 
    "street_address": "621 E. 11th St.", 
    "website": ""
  }, 
  {
    "country": "United States", 
    "id": "4ac24066f964a520639820e3", 
    "latitude": 40.750822, 
    "locality": "New York", 
    "longitude": -73.9798200130463, 
    "name": "Tamale Lady (Mexican Embassy)", 
    "phone": null, 
    "postal_code": "10016", 
    "region": "NY", 
    "street_address": "27 E. 39th St.", 
    "website": ""
  }, 
  {
    "country": "United States", 
    "id": "4f32370219836c91c7c1774e", 
    "latitude": 40.731602, 
    "locality": "New York", 
    "longitude": -74.000999, 
    "name": "Le Frite Kot", 
    "phone": "(212) 979-2616", 
    "postal_code": "", 
    "region": "NY", 
    "street_address": "148 W. 4th St.", 
    "website": ""
  }, 
  {
    "country": "United States", 
    "id": "4aaa663bf964a520d65520e3", 
    "latitude": 40.7194763754394, 
    "locality": "New York", 
    "longitude": -73.9887104303279, 
    "name": "Mehanata Bulgarian Bar", 
    "phone": "(212) 625-0981", 
    "postal_code": "10002", 
    "region": "NY", 
    "street_address": "113 Ludlow St.", 
    "website": "http://mehanata.com"
  }, 
  {
    "country": "United States", 
    "id": "4e4c449dbd413c4cc66818e6", 
    "latitude": 40.7224782916184, 
    "locality": "New York", 
    "longitude": -73.9877233240256, 
    "name": "Cheesesteak Factory", 
    "phone": "(212) 375-0700", 
    "postal_code": "10002", 
    "region": "NY", 
    "street_address": "191 E. Houston St.", 
    "website": ""
  }, 
  {
    "country": "United States", 
    "id": "4f4e44777716223249fe88b3", 
    "latitude": 40.7258846869948, 
    "locality": "New York", 
    "longitude": -73.9924478530884, 
    "name": "Mile End Sandwich", 
    "phone": "(212) 529-2990", 
    "postal_code": "10012", 
    "region": "NY", 
    "street_address": "53 Bond St.", 
    "website": "http://www.mileendbrooklyn.com"
  }, 
  {
    "country": "United States", 
    "id": "4dfb6c7e62e19b42f1e41d7f", 
    "latitude": 40.731623, 
    "locality": "New York", 
    "longitude": -74.004441, 
    "name": "Ladies Lounge", 
    "phone": null, 
    "postal_code": "", 
    "region": "NY", 
    "street_address": "27 Morton St.", 
    "website": ""
  }, 
  {
    "country": "United States", 
    "id": "52194f9111d2b33a3b43c668", 
    "latitude": 40.731829, 
    "locality": "New York", 
    "longitude": -74.003128, 
    "name": "Cafe Vivaldi", 
    "phone": null, 
    "postal_code": "", 
    "region": "NY", 
    "street_address": "", 
    "website": ""
  }, 
  {
    "country": "United States", 
    "id": "4c681482e75ac92854b1fbda", 
    "latitude": 40.7810613694248, 
    "locality": "New York", 
    "longitude": -73.9521718025208, 
    "name": "Mr wright Wine 3rd Ave Between 89 & 90", 
    "phone": "(212) 722-4564", 
    "postal_code": "10128", 
    "region": "NY", 
    "street_address": "3rd Ave.", 
    "website": ""
  }, 
  {
    "country": "United States", 
    "id": "4f3212b119833175d60dd5c2", 
    "latitude": 40.772072, 
    "locality": "New York", 
    "longitude": -73.955967, 
    "name": "Bossa Nova", 
    "phone": "(212) 249-2556", 
    "postal_code": "", 
    "region": "NY", 
    "street_address": "1484 2nd Ave.", 
    "website": ""
  }, 
  {
    "country": "United States", 
    "id": "4f6cb445e4b05c9c2a26849e", 
    "latitude": 40.740327, 
    "locality": "New York", 
    "longitude": -73.983684, 
    "name": "The Halal Food Truck", 
    "phone": null, 
    "postal_code": "10010", 
    "region": "NY", 
    "street_address": "E. 25th St. And Lexington", 
    "website": ""
  }, 
  {
    "country": "United States", 
    "id": "4c338092a0ced13a59bd166e", 
    "latitude": 40.7109225417339, 
    "locality": "New York", 
    "longitude": -74.0145111265431, 
    "name": "Devon & Blakely", 
    "phone": "(212) 786-4206", 
    "postal_code": "10006", 
    "region": "NY", 
    "street_address": "1 World Financial Center", 
    "website": ""
  }, 
  {
    "country": "United States", 
    "id": "506f5304e4b04b4e0c1b1964", 
    "latitude": 40.741008, 
    "locality": "New York", 
    "longitude": -73.994524, 
    "name": "The Treats Truck", 
    "phone": null, 
    "postal_code": "10011", 
    "region": "NY", 
    "street_address": "18th St. & 7th Ave.", 
    "website": ""
  }, 
  {
    "country": "United States", 
    "id": "4e4e4af4bd4101d0d7a70305", 
    "latitude": 40.74431, 
    "locality": "New York", 
    "longitude": -73.9731, 
    "name": "Blue & Gold Delicatessen", 
    "phone": "(212) 755-5505", 
    "postal_code": "10022", 
    "region": "NY", 
    "street_address": "1075 1st Ave.", 
    "website": ""
  }, 
  {
    "country": "United States", 
    "id": "4bee77aae8c3c92821b79892", 
    "latitude": 40.690304009742, 
    "locality": "New York", 
    "longitude": -73.9243083657591, 
    "name": "Dunkin' Donuts", 
    "phone": "(718) 453-9880", 
    "postal_code": "11221", 
    "region": "NY", 
    "street_address": "1285 Broadway", 
    "website": "http://www.dunkindonuts.com"
  }, 
  {
    "country": "United States", 
    "id": "4f93723ce4b0f888dd3742d1", 
    "latitude": 40.728042, 
    "locality": "New York", 
    "longitude": -73.991159, 
    "name": "Bar at The Standard", 
    "phone": null, 
    "postal_code": "10003", 
    "region": "NY", 
    "street_address": "", 
    "website": ""
  }, 
  {
    "country": "United States", 
    "id": "4b6e1495f964a520faa82ce3", 
    "latitude": 40.7690757129102, 
    "locality": "New York", 
    "longitude": -73.9550483941033, 
    "name": "In Vino Veritas", 
    "phone": "(212) 288-0100", 
    "postal_code": "10021", 
    "region": "NY", 
    "street_address": "1375 1st Ave.", 
    "website": ""
  }, 
  {
    "country": "United States", 
    "id": "51dea8fe5019b97b8de6fd8f", 
    "latitude": 40.8444408927268, 
    "locality": "New York", 
    "longitude": -73.9371782541275, 
    "name": "Subway Restaurant", 
    "phone": "(212) 510-8349", 
    "postal_code": "10033", 
    "region": "NY", 
    "street_address": "1268 St. Nicholas Ave.", 
    "website": ""
  }, 
  {
    "country": "United States", 
    "id": "4b51021cf964a5204e3d27e3", 
    "latitude": 40.818419, 
    "locality": "New York", 
    "longitude": -73.9526714333333, 
    "name": "La Palma Restaurant & Pizzeria", 
    "phone": "(212) 283-1149", 
    "postal_code": "10031", 
    "region": "NY", 
    "street_address": "1502 Amsterdam Ave.", 
    "website": ""
  }, 
  {
    "country": "United States", 
    "id": "4db17de393a061576855ad2e", 
    "latitude": 40.759304, 
    "locality": "New York", 
    "longitude": -73.9187890291214, 
    "name": "Great Eatery Inc", 
    "phone": "(718) 721-5000", 
    "postal_code": "11103", 
    "region": "NY", 
    "street_address": "31-78 Steinway St.", 
    "website": ""
  }, 
  {
    "country": "United States", 
    "id": "4b212d63f964a520c63724e3", 
    "latitude": 40.748765, 
    "locality": "New York", 
    "longitude": -73.992332, 
    "name": "Harrington's Bar & Grill", 
    "phone": "(212) 736-3636", 
    "postal_code": "10001", 
    "region": "NY", 
    "street_address": "370 7th Ave.", 
    "website": ""
  }, 
  {
    "country": "United States", 
    "id": "4d2cb2eb3c7954819a3ef39b", 
    "latitude": 40.72497008, 
    "locality": "New York", 
    "longitude": -73.987148, 
    "name": "King Gyro", 
    "phone": "(212) 777-7511", 
    "postal_code": "10003", 
    "region": "NY", 
    "street_address": "57 1st Ave.", 
    "website": ""
  }, 
  {
    "country": "United States", 
    "id": "4fc05a30e4b021b6df6f6a45", 
    "latitude": 40.721543, 
    "locality": "New York", 
    "longitude": -73.980415, 
    "name": "Chez Bergman", 
    "phone": null, 
    "postal_code": "11211", 
    "region": "NY", 
    "street_address": "63 N. 3rd", 
    "website": ""
  }, 
  {
    "country": "United States", 
    "id": "4c3c76bd7f49c9b65de16be3", 
    "latitude": 40.708332, 
    "locality": "New York", 
    "longitude": -73.99942, 
    "name": "Michael\u2019s Food Cart", 
    "phone": "(718) 902-9951", 
    "postal_code": "", 
    "region": "NY", 
    "street_address": "South St.", 
    "website": ""
  }, 
  {
    "country": "United States", 
    "id": "5011f884e4b00c72b5d93a44", 
    "latitude": 40.7448298716133, 
    "locality": "New York", 
    "longitude": -73.9949830278669, 
    "name": "Santa Margherita", 
    "phone": null, 
    "postal_code": "10001", 
    "region": "NY", 
    "street_address": "", 
    "website": ""
  }, 
  {
    "country": "United States", 
    "id": "51045ca8e4b0fcbbb086d11e", 
    "latitude": 40.7522964477539, 
    "locality": "New York", 
    "longitude": -74.0052871704102, 
    "name": "Beer Bourbon and BBQ Festival", 
    "phone": null, 
    "postal_code": "10001", 
    "region": "NY", 
    "street_address": "", 
    "website": ""
  }, 
  {
    "country": "United States", 
    "id": "5061eef7e4b01a2dad1fec78", 
    "latitude": 40.7777447284553, 
    "locality": "New York", 
    "longitude": -73.97770276012, 
    "name": "West Side Second Story", 
    "phone": null, 
    "postal_code": "10023", 
    "region": "NY", 
    "street_address": "42 W. 73rd St., Apt 2f", 
    "website": ""
  }, 
  {
    "country": "United States", 
    "id": "4d254a7c3bea8eec3e15e373", 
    "latitude": 40.75137, 
    "locality": "New York", 
    "longitude": -74.0025436878204, 
    "name": "Rockit at Quo", 
    "phone": "(212) 268-5105", 
    "postal_code": "10001", 
    "region": "NY", 
    "street_address": "511 W. 28th St.", 
    "website": ""
  }, 
  {
    "country": "United States", 
    "id": "4bb77c40314e9521902a479d", 
    "latitude": 40.7358708833333, 
    "locality": "New York", 
    "longitude": -74.000764, 
    "name": "Original Sandwich Shoppe", 
    "phone": "(212) 255-2237", 
    "postal_code": "10011", 
    "region": "NY", 
    "street_address": "58 Greenwich Ave.", 
    "website": ""
  }, 
  {
    "country": "United States", 
    "id": "51434b3ce4b0c9f1c3ee13a6", 
    "latitude": 40.727814, 
    "locality": "New York", 
    "longitude": -74.007407, 
    "name": "Eddie's Pizza Truck", 
    "phone": null, 
    "postal_code": "", 
    "region": "NY", 
    "street_address": "", 
    "website": ""
  }, 
  {
    "country": "United States", 
    "id": "4e4c4f7ebd413c4cc66867f1", 
    "latitude": 40.761488, 
    "locality": "New York", 
    "longitude": -73.960607, 
    "name": "Dalga Seafood Grill", 
    "phone": "(212) 813-1790", 
    "postal_code": "10065", 
    "region": "NY", 
    "street_address": "401 E. 62nd St.", 
    "website": ""
  }, 
  {
    "country": "United States", 
    "id": "4f37f6dce4b0d408a500121a", 
    "latitude": 40.714269, 
    "locality": "New York", 
    "longitude": -74.005973, 
    "name": "Poolville Country Store", 
    "phone": null, 
    "postal_code": "10007", 
    "region": "NY", 
    "street_address": "", 
    "website": ""
  }, 
  {
    "country": "United States", 
    "id": "4ec32023722e5b8e03c5f20e", 
    "latitude": 40.705717, 
    "locality": "Brooklyn", 
    "longitude": -73.932109, 
    "name": "Shinobi Ramen", 
    "phone": "", 
    "postal_code": "11237", 
    "region": "NY", 
    "street_address": "53 Morgan Ave.", 
    "website": ""
  }, 
  {
    "country": "United States", 
    "id": "4c28cbec97d00f47176240ea", 
    "latitude": 40.770217, 
    "locality": "New York", 
    "longitude": -73.9599, 
    "name": "Subway Resturaunt", 
    "phone": null, 
    "postal_code": "10021", 
    "region": "NY", 
    "street_address": "", 
    "website": ""
  }, 
  {
    "country": "United States", 
    "id": "4f32587719836c91c7cea35c", 
    "latitude": 40.759159, 
    "locality": "New York", 
    "longitude": -73.968328, 
    "name": "Simply Food", 
    "phone": "(212) 759-4000", 
    "postal_code": "", 
    "region": "NY", 
    "street_address": "918 3rd Ave.", 
    "website": ""
  }, 
  {
    "country": "United States", 
    "id": "4f32b43919836c91c7f18359", 
    "latitude": 40.792881, 
    "locality": "New York", 
    "longitude": -73.963804, 
    "name": "Nana Pearl's Woodenspoon", 
    "phone": "(212) 665-7515", 
    "postal_code": "", 
    "region": "NY", 
    "street_address": "400 Central Park W.", 
    "website": ""
  }, 
  {
    "country": "United States", 
    "id": "500a9f95e4b00d76e499d83e", 
    "latitude": 40.7423667907715, 
    "locality": "New York", 
    "longitude": -74.0032043457031, 
    "name": "..nyc jaajjjj......:-D", 
    "phone": null, 
    "postal_code": "10011", 
    "region": "NY", 
    "street_address": "", 
    "website": ""
  }, 
  {
    "country": "United States", 
    "id": "4a8eea2df964a520221320e3", 
    "latitude": 40.710647, 
    "locality": "New York", 
    "longitude": -74.0083817166667, 
    "name": "Caruso's Pizza & Pasta", 
    "phone": "(212) 227-7667", 
    "postal_code": "10038", 
    "region": "NY", 
    "street_address": "140 Fulton St.", 
    "website": ""
  }, 
  {
    "country": "United States", 
    "id": "4d8a588226a36ea870ecf2ad", 
    "latitude": 40.7924116169543, 
    "locality": "New York", 
    "longitude": -73.9501234294605, 
    "name": "Tu Casa Deli Grocery", 
    "phone": null, 
    "postal_code": "10029", 
    "region": "NY", 
    "street_address": "29 E. 104th St.", 
    "website": ""
  }, 
  {
    "country": "United States", 
    "id": "510aad1ae4b0bfb2583169b9", 
    "latitude": 40.7148473327633, 
    "locality": "New York", 
    "longitude": -74.007671067249, 
    "name": "Saffron Fresh Indian", 
    "phone": null, 
    "postal_code": "10007", 
    "region": "NY", 
    "street_address": "", 
    "website": ""
  }, 
  {
    "country": "United States", 
    "id": "3fd66200f964a52076e31ee3", 
    "latitude": 40.7168360856747, 
    "locality": "New York", 
    "longitude": -74.0081112831831, 
    "name": "Edward's Restaurant", 
    "phone": "(212) 285-1155", 
    "postal_code": "10013", 
    "region": "NY", 
    "street_address": "136 W. Broadway", 
    "website": "http://edwardsnyc.com"
  }, 
  {
    "country": "United States", 
    "id": "51f7f5d5498e9ebedc61d58b", 
    "latitude": 40.746408, 
    "locality": "New York", 
    "longitude": -73.993261, 
    "name": "99 Cent Best & Fresh Pizza", 
    "phone": "(212) 488-2388", 
    "postal_code": "10001", 
    "region": "NY", 
    "street_address": "166 W. 27th St.", 
    "website": ""
  }, 
  {
    "country": "United States", 
    "id": "4f7f1e63e4b074f70dbb95e5", 
    "latitude": 40.8505614087879, 
    "locality": "New York", 
    "longitude": -73.9384935862964, 
    "name": "2 Bros Pizza", 
    "phone": null, 
    "postal_code": "10018", 
    "region": "NY", 
    "street_address": "", 
    "website": ""
  }, 
  {
    "country": "United States", 
    "id": "4a70b5aef964a52040d81fe3", 
    "latitude": 40.715589, 
    "locality": "New York", 
    "longitude": -74.011654, 
    "name": "Gee Whiz Diner", 
    "phone": "(212) 608-7200", 
    "postal_code": "10007", 
    "region": "NY", 
    "street_address": "295 Greenwich St.", 
    "website": ""
  }, 
  {
    "country": "United States", 
    "id": "49e8ee2ef964a520af651fe3", 
    "latitude": 40.715234, 
    "locality": "New York", 
    "longitude": -73.99352, 
    "name": "Super Taste", 
    "phone": "(646) 283-0999", 
    "postal_code": "10002", 
    "region": "NY", 
    "street_address": "26 Eldridge St.", 
    "website": ""
  }, 
  {
    "country": "United States", 
    "id": "4f322b4919836c91c7bcf84d", 
    "latitude": 40.726974, 
    "locality": "New York", 
    "longitude": -73.999996, 
    "name": "Allora S P A", 
    "phone": "(212) 477-8337", 
    "postal_code": "", 
    "region": "NY", 
    "street_address": "90 W. Houston St.", 
    "website": ""
  }, 
  {
    "country": "United States", 
    "id": "4e66c4076365d0e711e5711d", 
    "latitude": 40.7421319820252, 
    "locality": "New York", 
    "longitude": -74.0035173296928, 
    "name": "Electric Room", 
    "phone": "(212) 229-2559", 
    "postal_code": "10011", 
    "region": "NY", 
    "street_address": "355 W. 16th St.", 
    "website": ""
  }, 
  {
    "country": "United States", 
    "id": "4efdfe83be7bbcd4f1cf4a94", 
    "latitude": 40.7544813520456, 
    "locality": "New York", 
    "longitude": -73.981329966159, 
    "name": "Tiger Bar and Grill", 
    "phone": null, 
    "postal_code": "10036", 
    "region": "NY", 
    "street_address": "15 W. 43rd St.", 
    "website": ""
  }, 
  {
    "country": "United States", 
    "id": "5191641e498ef1f5e007366c", 
    "latitude": 40.7411683839021, 
    "locality": "New York", 
    "longitude": -73.989479451487, 
    "name": "7 eleven", 
    "phone": null, 
    "postal_code": "", 
    "region": "NY", 
    "street_address": "", 
    "website": ""
  }, 
  {
    "country": "United States", 
    "id": "4dd2b09bd4c0febf0feba5d6", 
    "latitude": 40.726692, 
    "locality": "New York", 
    "longitude": -73.99208, 
    "name": "O V Sushi Bar Karaoke", 
    "phone": null, 
    "postal_code": "", 
    "region": "NY", 
    "street_address": "Bowery", 
    "website": ""
  }, 
  {
    "country": "United States", 
    "id": "5082f364e4b00b2c405bf3bb", 
    "latitude": 40.777916814683, 
    "locality": "New York", 
    "longitude": -73.9567244606596, 
    "name": "LeChurro", 
    "phone": "(646) 649-5253", 
    "postal_code": "10028", 
    "region": "NY", 
    "street_address": "1236 Lexington Ave.", 
    "website": "http://lechurro.com"
  }, 
  {
    "country": "United States", 
    "id": "4f71b500e4b068eb3e085fc7", 
    "latitude": 40.757676, 
    "locality": "New York", 
    "longitude": -73.97114, 
    "name": "Cart Man", 
    "phone": null, 
    "postal_code": "10022", 
    "region": "NY", 
    "street_address": "E. 52nd", 
    "website": ""
  }, 
  {
    "country": "United States", 
    "id": "4fc4215de4b0c9a9f2594eda", 
    "latitude": 40.747985, 
    "locality": "New York", 
    "longitude": -74.001684, 
    "name": "Some Rooftop On 26th And 9th", 
    "phone": null, 
    "postal_code": "10011", 
    "region": "NY", 
    "street_address": "", 
    "website": ""
  }, 
  {
    "country": "United States", 
    "id": "4d8562215ad3a09322d5e4fd", 
    "latitude": 40.840533, 
    "locality": "New York", 
    "longitude": -73.85178, 
    "name": "Edgars Grocery & Deli", 
    "phone": null, 
    "postal_code": "", 
    "region": "NY", 
    "street_address": "Zerega Ave.", 
    "website": ""
  }, 
  {
    "country": "United States", 
    "id": "4ebb4f7fe5faf7ab654cf6c1", 
    "latitude": 40.777893, 
    "locality": "New York", 
    "longitude": -73.944813, 
    "name": "G Love's House Of Sauce", 
    "phone": null, 
    "postal_code": "10128", 
    "region": "NY", 
    "street_address": "", 
    "website": ""
  }, 
  {
    "country": "United States", 
    "id": "518971a1498eab1e7bdc17c2", 
    "latitude": 40.7572998693803, 
    "locality": "New York", 
    "longitude": -73.9676185384368, 
    "name": "Jamies Nyc", 
    "phone": null, 
    "postal_code": "", 
    "region": "NY", 
    "street_address": "", 
    "website": ""
  }, 
  {
    "country": "United States", 
    "id": "45fbbe93f964a52061441fe3", 
    "latitude": 40.7795254429874, 
    "locality": "New York", 
    "longitude": -73.9505080174645, 
    "name": "Genesis Bar & Restaurant", 
    "phone": "(212) 348-5500", 
    "postal_code": "10128", 
    "region": "NY", 
    "street_address": "1708 2nd Ave.", 
    "website": "http://www.genesisbar.com\u200e"
  }, 
  {
    "country": "United States", 
    "id": "4d85677302eb5481ee0744f5", 
    "latitude": 40.76323, 
    "locality": "New York", 
    "longitude": -73.815142, 
    "name": "Gugongtan", 
    "phone": "", 
    "postal_code": "", 
    "region": "NY", 
    "street_address": "40-03 149th Pl.", 
    "website": ""
  }, 
  {
    "country": "United States", 
    "id": "5127d927b0ed88901a3d025b", 
    "latitude": 40.7669566209703, 
    "locality": "New York", 
    "longitude": -73.9646601676941, 
    "name": "Ebony Escorts NYC", 
    "phone": "(917) 379-4224", 
    "postal_code": "10021", 
    "region": "NY", 
    "street_address": "", 
    "website": ""
  }, 
  {
    "country": "United States", 
    "id": "4c3c8fc615cb1b8d61be7adc", 
    "latitude": 40.7735963391229, 
    "locality": "New York", 
    "longitude": -73.959927314498, 
    "name": "Hot & Crusty Bakery Cafe", 
    "phone": "(212) 734-2013", 
    "postal_code": "10075", 
    "region": "NY", 
    "street_address": "1097 Lexington Ave.", 
    "website": ""
  }, 
  {
    "country": "United States", 
    "id": "4f668416e4b03c270bba1400", 
    "latitude": 40.7162328018508, 
    "locality": "New York", 
    "longitude": -73.9961385726929, 
    "name": "Cash's tent with 802.11n WiFi", 
    "phone": null, 
    "postal_code": "10013", 
    "region": "NY", 
    "street_address": "", 
    "website": ""
  }, 
  {
    "country": "United States", 
    "id": "4ec6bb240aaf9c3ccb6dec90", 
    "latitude": 40.7101763, 
    "locality": "New York", 
    "longitude": -74.0098251, 
    "name": "Honors Place", 
    "phone": null, 
    "postal_code": "10038", 
    "region": "NY", 
    "street_address": "110 John St.", 
    "website": ""
  }, 
  {
    "country": "United States", 
    "id": "4ce3cc1cbebd3704c106a2a0", 
    "latitude": 40.6703495047707, 
    "locality": "New York", 
    "longitude": -73.9902656863517, 
    "name": "Subway", 
    "phone": null, 
    "postal_code": "10103", 
    "region": "NY", 
    "street_address": "666 5th Ave.", 
    "website": ""
  }, 
  {
    "country": "United States", 
    "id": "4450e4cdf964a5209f321fe3", 
    "latitude": 40.7493985045715, 
    "locality": "New York", 
    "longitude": -73.9956946362211, 
    "name": "Kasteli Cafe", 
    "phone": null, 
    "postal_code": "10001", 
    "region": "NY", 
    "street_address": "372 8th Ave.", 
    "website": ""
  }, 
  {
    "country": "United States", 
    "id": "49bad154f964a520b5531fe3", 
    "latitude": 40.727602283053, 
    "locality": "New York", 
    "longitude": -73.9833845873129, 
    "name": "Dirt Candy", 
    "phone": "(212) 228-7732", 
    "postal_code": "10009", 
    "region": "NY", 
    "street_address": "430 E. 9th St.", 
    "website": "http://dirtcandynyc.com"
  }, 
  {
    "country": "United States", 
    "id": "4dfb5101d164f73de7cc9271", 
    "latitude": 40.760321, 
    "locality": "New York", 
    "longitude": -73.975082, 
    "name": "Carnegie Sports and Entertainment", 
    "phone": null, 
    "postal_code": "", 
    "region": "NY", 
    "street_address": "", 
    "website": ""
  }, 
  {
    "country": "United States", 
    "id": "4edd0a89f790c04548d6d8ff", 
    "latitude": 40.7239418697743, 
    "locality": "New York", 
    "longitude": -74.0072579014672, 
    "name": "Kitsch at Sterling Brands", 
    "phone": null, 
    "postal_code": "10013", 
    "region": "NY", 
    "street_address": "75 Varick St.", 
    "website": ""
  }, 
  {
    "country": "United States", 
    "id": "4f325c9619836c91c7d0438e", 
    "latitude": 40.755825, 
    "locality": "New York", 
    "longitude": -73.97076, 
    "name": "City Perk", 
    "phone": "(212) 546-9087", 
    "postal_code": "", 
    "region": "NY", 
    "street_address": "909 3rd Ave.", 
    "website": ""
  }, 
  {
    "country": "United States", 
    "id": "5004ca9ee4b023056eeb297d", 
    "latitude": 40.8271675109863, 
    "locality": "New York", 
    "longitude": -73.9467697143555, 
    "name": "Cooking my awesome Foods (:", 
    "phone": null, 
    "postal_code": "10031", 
    "region": "NY", 
    "street_address": "", 
    "website": ""
  }, 
  {
    "country": "United States", 
    "id": "4e3e2543aeb73139a183b1eb", 
    "latitude": 40.728104341303, 
    "locality": "New York", 
    "longitude": -73.9997863769531, 
    "name": "190 Thompson Street", 
    "phone": null, 
    "postal_code": "10012", 
    "region": "NY", 
    "street_address": "190 Thompson St.", 
    "website": ""
  }, 
  {
    "country": "United States", 
    "id": "4de5a887d4c09fc98b6e0498", 
    "latitude": 40.7580177305906, 
    "locality": "New York", 
    "longitude": -73.9928126335144, 
    "name": "Panda Restaurant", 
    "phone": "(212) 695-0836", 
    "postal_code": "10036", 
    "region": "NY", 
    "street_address": "570 9th Ave.", 
    "website": "http://www.pandarg.com"
  }, 
  {
    "country": "United States", 
    "id": "4af73a0ff964a520620722e3", 
    "latitude": 40.7272126192813, 
    "locality": "New York", 
    "longitude": -73.9829254560004, 
    "name": "Ciao for Now", 
    "phone": "", 
    "postal_code": "10009", 
    "region": "NY", 
    "street_address": "139 Ave. A", 
    "website": ""
  }, 
  {
    "country": "United States", 
    "id": "4fdb54e1e4b037067e2778d2", 
    "latitude": 40.7728913989468, 
    "locality": "New York", 
    "longitude": -73.9525170468362, 
    "name": "Pizza Restaurant", 
    "phone": null, 
    "postal_code": "10028", 
    "region": "NY", 
    "street_address": "1526 1st Ave.", 
    "website": ""
  }, 
  {
    "country": "United States", 
    "id": "4dc4925b2271f27051176a16", 
    "latitude": 40.729312, 
    "locality": "New York", 
    "longitude": -73.981118, 
    "name": "Fat Sal's Pizza", 
    "phone": "(212) 777-7477", 
    "postal_code": "10009", 
    "region": "NY", 
    "street_address": "201 Ave. A", 
    "website": ""
  }, 
  {
    "country": "United States", 
    "id": "4e4e4ba0bd4101d0d7a7125a", 
    "latitude": 40.7750795420805, 
    "locality": "New York", 
    "longitude": -73.9565752224467, 
    "name": "Taste Restaurant & Wine Bar", 
    "phone": "(212) 717-9798", 
    "postal_code": "10028", 
    "region": "NY", 
    "street_address": "1411 3rd Ave.", 
    "website": "http://www.elizabar.com/taste/taste.html"
  }, 
  {
    "country": "United States", 
    "id": "4ed41afc0e61efa3355f9973", 
    "latitude": 40.7670712973139, 
    "locality": "New York", 
    "longitude": -73.9618042310225, 
    "name": "Brickoven Pizza", 
    "phone": "(212) 639-9696", 
    "postal_code": "10021", 
    "region": "NY", 
    "street_address": "", 
    "website": ""
  }, 
  {
    "country": "United States", 
    "id": "4eb826e2f5b94bd85cf299c2", 
    "latitude": 40.741348828724, 
    "locality": "New York", 
    "longitude": -73.9831148477997, 
    "name": "Luu's Baguette", 
    "phone": "", 
    "postal_code": "10016", 
    "region": "NY", 
    "street_address": "134 E. 26th St.", 
    "website": ""
  }, 
  {
    "country": "United States", 
    "id": "4dc6e39a887717c880479369", 
    "latitude": 40.7302102302739, 
    "locality": "New York", 
    "longitude": -73.989450756723, 
    "name": "Birdbath Neighborhood Green Bakery", 
    "phone": "", 
    "postal_code": "10003", 
    "region": "NY", 
    "street_address": "37 3rd Ave.", 
    "website": ""
  }, 
  {
    "country": "United States", 
    "id": "4f9056cfe4b0c95a35b949f1", 
    "latitude": 40.7355514316581, 
    "locality": "New York", 
    "longitude": -73.9983701705933, 
    "name": "Famous Roio's Pizza", 
    "phone": "(212) 243-2253", 
    "postal_code": "10011", 
    "region": "NY", 
    "street_address": "465 Ave. Of The Americas", 
    "website": ""
  }, 
  {
    "country": "United States", 
    "id": "4a5f4a08f964a5205abf1fe3", 
    "latitude": 40.7620160010708, 
    "locality": "New York", 
    "longitude": -73.9866542816162, 
    "name": "Starbucks", 
    "phone": "(212) 307-7173", 
    "postal_code": "10019", 
    "region": "NY", 
    "street_address": "825 8th Ave. W.-9", 
    "website": ""
  }, 
  {
    "country": "United States", 
    "id": "4f498567e4b092e0ca1556f0", 
    "latitude": 40.7370150358462, 
    "locality": "New York", 
    "longitude": -73.9959930518415, 
    "name": "Golden Crust 14th St", 
    "phone": null, 
    "postal_code": "10011", 
    "region": "NY", 
    "street_address": "6th Ave.", 
    "website": ""
  }, 
  {
    "country": "United States", 
    "id": "5089d515e4b0772b576971ec", 
    "latitude": 40.7444305419922, 
    "locality": "New York", 
    "longitude": -73.995246887207, 
    "name": "Bawdy takes NY", 
    "phone": null, 
    "postal_code": "10011", 
    "region": "NY", 
    "street_address": "", 
    "website": ""
  }, 
  {
    "country": "United States", 
    "id": "4f4e4040e4b027c874128c8a", 
    "latitude": 40.7660887957562, 
    "locality": "New York", 
    "longitude": -73.9834075438497, 
    "name": "Balducci's Food Lover's Market", 
    "phone": "(212) 653-8320", 
    "postal_code": "10019", 
    "region": "NY", 
    "street_address": "301 W. 56th St.", 
    "website": ""
  }, 
  {
    "country": "United States", 
    "id": "4c9f6656d3c2b60c8e04d4bc", 
    "latitude": 40.737023, 
    "locality": "New York", 
    "longitude": -74.000516, 
    "name": "Southern Brunch", 
    "phone": null, 
    "postal_code": "10011", 
    "region": "NY", 
    "street_address": "", 
    "website": ""
  }, 
  {
    "country": "United States", 
    "id": "40d23080f964a5203e011fe3", 
    "latitude": 40.72222, 
    "locality": "New York", 
    "longitude": -73.994267, 
    "name": "Public Restaurant", 
    "phone": "(212) 343-7011", 
    "postal_code": "10012", 
    "region": "NY", 
    "street_address": "210 Elizabeth St.", 
    "website": "http://public-nyc.com"
  }, 
  {
    "country": "United States", 
    "id": "4f871584bb3d0cb6b50b95a0", 
    "latitude": 40.7582615344562, 
    "locality": "New York", 
    "longitude": -73.9662051200867, 
    "name": "Off The Wall Frozen Yogurt", 
    "phone": "(917) 463-0450", 
    "postal_code": "10022", 
    "region": "NY", 
    "street_address": "1053 2nd Ave.", 
    "website": "http://offthewallyogurt.com"
  }, 
  {
    "country": "United States", 
    "id": "4c663080c2ead13a3340b380", 
    "latitude": 40.811314, 
    "locality": "New York", 
    "longitude": -73.95228, 
    "name": "Kilimanjaro Deli", 
    "phone": null, 
    "postal_code": "10027", 
    "region": "NY", 
    "street_address": "", 
    "website": ""
  }, 
  {
    "country": "United States", 
    "id": "4b9aeeedf964a52086e435e3", 
    "latitude": 40.8669860599111, 
    "locality": "New York", 
    "longitude": -73.9244346652958, 
    "name": "lotus express", 
    "phone": "(212) 569-8899", 
    "postal_code": "10034", 
    "region": "NY", 
    "street_address": "4840 Broadway", 
    "website": ""
  }, 
  {
    "country": "United States", 
    "id": "51e96ac850190b30f54d5e9a", 
    "latitude": 40.7199652469018, 
    "locality": "New York", 
    "longitude": -73.9882206916809, 
    "name": "juice press", 
    "phone": "(202) 777-0034", 
    "postal_code": "10002", 
    "region": "NY", 
    "street_address": "105 Rivington St.", 
    "website": ""
  }, 
  {
    "country": "United States", 
    "id": "4e2bb041fa76bbf847dcb45a", 
    "latitude": 40.7602695575846, 
    "locality": "New York", 
    "longitude": -73.98419380358, 
    "name": "Sports Bar on Times Square", 
    "phone": null, 
    "postal_code": "", 
    "region": "NY", 
    "street_address": "", 
    "website": ""
  }, 
  {
    "country": "United States", 
    "id": "50633a17e4b06f1105b6c334", 
    "latitude": 40.7629695603582, 
    "locality": "New York", 
    "longitude": -73.9765376778394, 
    "name": "2kai Sushi", 
    "phone": "(212) 213-2299", 
    "postal_code": "10019", 
    "region": "NY", 
    "street_address": "40 W. 56th St.", 
    "website": ""
  }, 
  {
    "country": "United States", 
    "id": "51cc6a42498e240d44b9562d", 
    "latitude": 40.75564, 
    "locality": "New York", 
    "longitude": -73.976069, 
    "name": "Supreme Truck Fusion", 
    "phone": null, 
    "postal_code": "", 
    "region": "NY", 
    "street_address": "", 
    "website": ""
  }, 
  {
    "country": "United States", 
    "id": "4c3fa0a8af052d7f10a67a79", 
    "latitude": 40.7554496088931, 
    "locality": "New York", 
    "longitude": -73.9696598052979, 
    "name": "Ristorante DeGrezia", 
    "phone": "(212) 750-5353", 
    "postal_code": "10022", 
    "region": "NY", 
    "street_address": "231 E. 50th St.", 
    "website": "http://degreziaristorante.com"
  }, 
  {
    "country": "United States", 
    "id": "4e4dd61fbd4101d0d79c5cf6", 
    "latitude": 40.7596684796281, 
    "locality": "New York", 
    "longitude": -73.9648749877854, 
    "name": "Dunkin Donuts", 
    "phone": "(631) 447-5473", 
    "postal_code": "10022", 
    "region": "NY", 
    "street_address": "1093 2nd Ave.", 
    "website": "http://www.dunkindonuts.com"
  }, 
  {
    "country": "United States", 
    "id": "4d2004dd8629224b66be0f87", 
    "latitude": 40.7222930296592, 
    "locality": "New York", 
    "longitude": -74.0114067339975, 
    "name": "Cafe Mocha", 
    "phone": null, 
    "postal_code": "10013", 
    "region": "NY", 
    "street_address": "250-254 West St.", 
    "website": ""
  }, 
  {
    "country": "United States", 
    "id": "4aa3f1fff964a5207d4420e3", 
    "latitude": 40.6706350366939, 
    "locality": "Brooklyn", 
    "longitude": -73.9785292181484, 
    "name": "Ocean Fish Market", 
    "phone": "(718) 499-1454", 
    "postal_code": "11215", 
    "region": "NY", 
    "street_address": "203 7th Ave.", 
    "website": ""
  }, 
  {
    "country": "United States", 
    "id": "4db9adc20cb6ddfae43a3987", 
    "latitude": 40.7152090132358, 
    "locality": "New York", 
    "longitude": -73.8303705721397, 
    "name": "Chinese Restaurant", 
    "phone": null, 
    "postal_code": "10013", 
    "region": "NY", 
    "street_address": "", 
    "website": ""
  }, 
  {
    "country": "United States", 
    "id": "4d1bc7491356224b69020abe", 
    "latitude": 40.734522, 
    "locality": "New York", 
    "longitude": -73.99984, 
    "name": "Grano", 
    "phone": null, 
    "postal_code": "", 
    "region": "NY", 
    "street_address": "Greenwich Ave.", 
    "website": ""
  }, 
  {
    "country": "United States", 
    "id": "4d4cd191d6f3224b1f3f95a6", 
    "latitude": 40.765028, 
    "locality": "New York", 
    "longitude": -73.987343, 
    "name": "Copper Smith's", 
    "phone": null, 
    "postal_code": "10009", 
    "region": "NY", 
    "street_address": "9 Ave. A", 
    "website": ""
  }, 
  {
    "country": "United States", 
    "id": "4f44914b19836ed00194f034", 
    "latitude": 40.709849, 
    "locality": "New York", 
    "longitude": -74.007046, 
    "name": "Fulton Wines and Spirits", 
    "phone": "(212) 571-2480", 
    "postal_code": "", 
    "region": "NY", 
    "street_address": "110 Fulton St.", 
    "website": ""
  }, 
  {
    "country": "United States", 
    "id": "519d728d498e8660927e36ae", 
    "latitude": 40.7947654724121, 
    "locality": "New York", 
    "longitude": -73.9673004150391, 
    "name": "Loco 8 Bar", 
    "phone": null, 
    "postal_code": "", 
    "region": "NY", 
    "street_address": "", 
    "website": ""
  }, 
  {
    "country": "United States", 
    "id": "5072d219e4b0f7be6ec39008", 
    "latitude": 40.804434, 
    "locality": "New York", 
    "longitude": -73.966424, 
    "name": "NYC Green Cart", 
    "phone": null, 
    "postal_code": "10025", 
    "region": "NY", 
    "street_address": "2849 Broadway", 
    "website": ""
  }, 
  {
    "country": "United States", 
    "id": "4f32586619836c91c7ce9d3a", 
    "latitude": 40.76274, 
    "locality": "New York", 
    "longitude": -73.959695, 
    "name": "Focaccia Fiorentina Restaurant", 
    "phone": "(212) 593-2223", 
    "postal_code": "", 
    "region": "NY", 
    "street_address": "400 E. 64th St.", 
    "website": ""
  }, 
  {
    "country": "United States", 
    "id": "4ade00b1f964a5203f6721e3", 
    "latitude": 40.7237339965023, 
    "locality": "New York", 
    "longitude": -74.0061389063266, 
    "name": "eet", 
    "phone": "(877) 338-6697", 
    "postal_code": "10013", 
    "region": "NY", 
    "street_address": "75 Varick St.", 
    "website": "http://www.eetnow.com"
  }, 
  {
    "country": "United States", 
    "id": "50675dfde4b073ee76163d34", 
    "latitude": 40.717576, 
    "locality": "New York", 
    "longitude": -73.998437, 
    "name": "Il Progresso", 
    "phone": null, 
    "postal_code": "10013", 
    "region": "NY", 
    "street_address": "", 
    "website": ""
  }, 
  {
    "country": "United States", 
    "id": "4fbc66c3e4b0834407dd1e26", 
    "latitude": 40.7161181552429, 
    "locality": "New York", 
    "longitude": -74.0066438895595, 
    "name": "The Pumpkin Patch", 
    "phone": null, 
    "postal_code": "10007", 
    "region": "NY", 
    "street_address": "", 
    "website": ""
  }, 
  {
    "country": "United States", 
    "id": "5081f4dee4b091f169dadec5", 
    "latitude": 40.744541636036, 
    "locality": "New York", 
    "longitude": -73.9905928050179, 
    "name": "Flat Iron Room", 
    "phone": null, 
    "postal_code": "10001", 
    "region": "NY", 
    "street_address": "", 
    "website": ""
  }, 
  {
    "country": "United States", 
    "id": "50537837e4b04df233954d62", 
    "latitude": 40.7201011960099, 
    "locality": "New York", 
    "longitude": -73.9956028159367, 
    "name": "Zusel's French Bread Co.", 
    "phone": null, 
    "postal_code": "10012", 
    "region": "NY", 
    "street_address": "362 Broome St.", 
    "website": ""
  }, 
  {
    "country": "United States", 
    "id": "4f32968f19836c91c7e6701c", 
    "latitude": 40.733075, 
    "locality": "New York", 
    "longitude": -74.004065, 
    "name": "Joseph Coffaro Restaurant", 
    "phone": "(212) 741-2782", 
    "postal_code": "", 
    "region": "NY", 
    "street_address": "320 Bleecker St.", 
    "website": ""
  }, 
  {
    "country": "United States", 
    "id": "4f4f787be4b04078851f5fbd", 
    "latitude": 40.7518410677457, 
    "locality": "New York", 
    "longitude": -73.9821696281433, 
    "name": "Panera Bread", 
    "phone": "(212) 938-6950", 
    "postal_code": "10018", 
    "region": "NY", 
    "street_address": "452 5th Ave.", 
    "website": "http://www.panerabread.com"
  }, 
  {
    "country": "United States", 
    "id": "4c1ba521eac020a1382d45c2", 
    "latitude": 40.84447, 
    "locality": "New York", 
    "longitude": -73.937352, 
    "name": "Subway Sandwiches", 
    "phone": null, 
    "postal_code": "10033", 
    "region": "NY", 
    "street_address": "1268 St. Nicholas", 
    "website": ""
  }, 
  {
    "country": "United States", 
    "id": "4a5ba340f964a5208ebb1fe3", 
    "latitude": 40.708829, 
    "locality": "New York", 
    "longitude": -74.005093, 
    "name": "Ruben's Empanadas", 
    "phone": "(212) 962-5330", 
    "postal_code": "10038", 
    "region": "NY", 
    "street_address": "64 Fulton St.", 
    "website": ""
  }, 
  {
    "country": "United States", 
    "id": "4cb66e60b315a09376369c76", 
    "latitude": 40.8348207964562, 
    "locality": "New York", 
    "longitude": -73.9461053000914, 
    "name": "Riverside Grocery", 
    "phone": null, 
    "postal_code": "10032", 
    "region": "NY", 
    "street_address": "157th And Broadway", 
    "website": ""
  }, 
  {
    "country": "United States", 
    "id": "51f68bf9498e1563ecfb482f", 
    "latitude": 40.756149, 
    "locality": "New York", 
    "longitude": -73.972566, 
    "name": "W Green Room", 
    "phone": null, 
    "postal_code": "", 
    "region": "NY", 
    "street_address": "", 
    "website": ""
  }, 
  {
    "country": "United States", 
    "id": "4e55b257e4cd779e8339f0ef", 
    "latitude": 40.6604787143407, 
    "locality": "New York", 
    "longitude": -73.9306117605569, 
    "name": "Cafe Soul Jamaican Resturant", 
    "phone": null, 
    "postal_code": "11203", 
    "region": "NY", 
    "street_address": "875 Rutland Rd.", 
    "website": ""
  }, 
  {
    "country": "United States", 
    "id": "4b758feaf964a5203e142ee3", 
    "latitude": 40.754411, 
    "locality": "New York", 
    "longitude": -73.986591, 
    "name": "La Baguette Cafe", 
    "phone": null, 
    "postal_code": "10018", 
    "region": "NY", 
    "street_address": "1440 Broadway", 
    "website": ""
  }, 
  {
    "country": "United States", 
    "id": "4a8ad2e9f964a520840a20e3", 
    "latitude": 40.7191197729491, 
    "locality": "New York", 
    "longitude": -74.0102533331598, 
    "name": "Trattoria Cinque", 
    "phone": "(212) 965-0555", 
    "postal_code": "10013", 
    "region": "NY", 
    "street_address": "363 Greenwich St.", 
    "website": "http://www.trattoriacinquenyc.com"
  }, 
  {
    "country": "United States", 
    "id": "4bb4fce50ef1c9b64fb7f412", 
    "latitude": 40.8310199863053, 
    "locality": "New York", 
    "longitude": -73.9473509291244, 
    "name": "Santiago Deli", 
    "phone": "(212) 862-6455", 
    "postal_code": "10031", 
    "region": "NY", 
    "street_address": "3680 Broadway", 
    "website": ""
  }, 
  {
    "country": "United States", 
    "id": "4f3286e219836c91c7e07b04", 
    "latitude": 40.730601, 
    "locality": "New York", 
    "longitude": -74.000382, 
    "name": "Coffee Express", 
    "phone": "(212) 475-4895", 
    "postal_code": "", 
    "region": "NY", 
    "street_address": "123 W. 3rd St.", 
    "website": ""
  }, 
  {
    "country": "United States", 
    "id": "4b81df10f964a52008c230e3", 
    "latitude": 40.785163, 
    "locality": "New York", 
    "longitude": -73.955547, 
    "name": "le Paris Bistrot", 
    "phone": "(212) 289-0997", 
    "postal_code": "10128", 
    "region": "NY", 
    "street_address": "1312 Madison Ave.", 
    "website": ""
  }, 
  {
    "country": "United States", 
    "id": "4c11bca8d41e76b0c106320d", 
    "latitude": 40.725882, 
    "locality": "New York", 
    "longitude": -74.00847, 
    "name": "Mcgovern's Bar", 
    "phone": null, 
    "postal_code": "10013", 
    "region": "NY", 
    "street_address": "", 
    "website": ""
  }, 
  {
    "country": "United States", 
    "id": "51537fb6e4b0b808fd56a8e5", 
    "latitude": 40.7611339146159, 
    "locality": "New York", 
    "longitude": -73.9871666397445, 
    "name": "Brazil Grill", 
    "phone": null, 
    "postal_code": "", 
    "region": "NY", 
    "street_address": "757 8th Ave.", 
    "website": ""
  }, 
  {
    "country": "United States", 
    "id": "4ca50d1444a8224b4a67f63f", 
    "latitude": 40.7363368959012, 
    "locality": "New York", 
    "longitude": -74.0058175526662, 
    "name": "Lievito", 
    "phone": "(212) 645-5811", 
    "postal_code": "10014", 
    "region": "NY", 
    "street_address": "581 Hudson St.", 
    "website": "https://lievitonyc.com"
  }, 
  {
    "country": "United States", 
    "id": "50c12440e4b0661cb2c65be2", 
    "latitude": 40.7264931646313, 
    "locality": "New York", 
    "longitude": -74.0059380603521, 
    "name": "kbs+p Party Bus", 
    "phone": null, 
    "postal_code": "10014", 
    "region": "NY", 
    "street_address": "", 
    "website": ""
  }, 
  {
    "country": "United States", 
    "id": "4e7a69b918386a155b7fc84d", 
    "latitude": 40.714974, 
    "locality": "New York", 
    "longitude": -74.0080459911111, 
    "name": "Dale Earnhardt Jr Jr's House", 
    "phone": null, 
    "postal_code": "", 
    "region": "NY", 
    "street_address": "", 
    "website": ""
  }, 
  {
    "country": "United States", 
    "id": "51b35aed498efda7cacf5905", 
    "latitude": 40.742619, 
    "locality": "New York", 
    "longitude": -73.98856, 
    "name": "The Salt Lick Bar-B-Q", 
    "phone": null, 
    "postal_code": "", 
    "region": "NY", 
    "street_address": "Big Apple Bbq Block Party", 
    "website": ""
  }, 
  {
    "country": "United States", 
    "id": "4b8c5b54f964a5207fcc32e3", 
    "latitude": 40.7508205537463, 
    "locality": "New York", 
    "longitude": -73.9917922353552, 
    "name": "Au Bon Pain", 
    "phone": "(212) 967-5276", 
    "postal_code": "10001", 
    "region": "NY", 
    "street_address": "Penn Station", 
    "website": "http://www.aubonpain.com"
  }, 
  {
    "country": "United States", 
    "id": "461352e3f964a52038451fe3", 
    "latitude": 40.7288142815459, 
    "locality": "New York", 
    "longitude": -73.9845496280935, 
    "name": "Sapporo East", 
    "phone": "(212) 260-1330", 
    "postal_code": "10009", 
    "region": "NY", 
    "street_address": "245 E. 10th St.", 
    "website": ""
  }, 
  {
    "country": "United States", 
    "id": "50bab059e4b080f300c2dccb", 
    "latitude": 40.726806640625, 
    "locality": "New York", 
    "longitude": -73.9813385009766, 
    "name": "La Zarza", 
    "phone": null, 
    "postal_code": "10009", 
    "region": "NY", 
    "street_address": "", 
    "website": ""
  }, 
  {
    "country": "United States", 
    "id": "51c8864c498e0ac96c14433e", 
    "latitude": 40.767026, 
    "locality": "New York", 
    "longitude": -73.981758, 
    "name": "Neapolitan Pizza Truck", 
    "phone": null, 
    "postal_code": "", 
    "region": "NY", 
    "street_address": "", 
    "website": ""
  }, 
  {
    "country": "United States", 
    "id": "4f329f0f19836c91c7e99a65", 
    "latitude": 40.754366, 
    "locality": "New York", 
    "longitude": -73.990327, 
    "name": "Wings", 
    "phone": "(212) 768-4220", 
    "postal_code": "", 
    "region": "NY", 
    "street_address": "270 W. 38th St.", 
    "website": ""
  }, 
  {
    "country": "United States", 
    "id": "51491ac9e4b0017f74da319a", 
    "latitude": 40.741341, 
    "locality": "New York", 
    "longitude": -73.98359, 
    "name": "Garryowen Club", 
    "phone": null, 
    "postal_code": "", 
    "region": "NY", 
    "street_address": "", 
    "website": ""
  }, 
  {
    "country": "United States", 
    "id": "51917094498e3adc520a2a26", 
    "latitude": 40.733991, 
    "locality": "New York", 
    "longitude": -74.000439, 
    "name": "La Colombe Torrefaction", 
    "phone": null, 
    "postal_code": "", 
    "region": "NY", 
    "street_address": "14 Christopher St.", 
    "website": ""
  }, 
  {
    "country": "United States", 
    "id": "51b559be498edc9cbe78ae18", 
    "latitude": 40.763636, 
    "locality": "New York", 
    "longitude": -73.975871, 
    "name": "Terrace Room At The Plaza", 
    "phone": null, 
    "postal_code": "", 
    "region": "NY", 
    "street_address": "", 
    "website": ""
  }, 
  {
    "country": "United States", 
    "id": "4f5d81dfe4b0c8398471bdc7", 
    "latitude": 40.8509026430043, 
    "locality": "New York", 
    "longitude": -73.9406864334753, 
    "name": "The Cabrini Crib", 
    "phone": null, 
    "postal_code": "10033", 
    "region": "NY", 
    "street_address": "81 Cabrini Blvd.", 
    "website": ""
  }, 
  {
    "country": "United States", 
    "id": "4cc5f773c844721edb15f201", 
    "latitude": 40.7606851485475, 
    "locality": "New York", 
    "longitude": -73.9825696284785, 
    "name": "Roses Mexicano", 
    "phone": null, 
    "postal_code": "10022", 
    "region": "NY", 
    "street_address": "1st Ave.", 
    "website": ""
  }, 
  {
    "country": "United States", 
    "id": "3fd66200f964a5201ee71ee3", 
    "latitude": 40.7339418624839, 
    "locality": "New York", 
    "longitude": -74.0025466007763, 
    "name": "Riviera Cafe", 
    "phone": "(212) 929-3250", 
    "postal_code": "10014", 
    "region": "NY", 
    "street_address": "225 W. 4th St.", 
    "website": ""
  }, 
  {
    "country": "United States", 
    "id": "4860243cf964a520dc501fe3", 
    "latitude": 40.7645626670511, 
    "locality": "New York", 
    "longitude": -73.9782307753812, 
    "name": "Angelo's Pizza", 
    "phone": "(212) 333-4333", 
    "postal_code": "10019", 
    "region": "NY", 
    "street_address": "117 W. 57th St.", 
    "website": "http://www.angelospizzany.com"
  }, 
  {
    "country": "United States", 
    "id": "51588b31e4b04d6d96948e4c", 
    "latitude": 40.734406, 
    "locality": "New York", 
    "longitude": -73.988388, 
    "name": "Palladium Halal", 
    "phone": null, 
    "postal_code": "", 
    "region": "NY", 
    "street_address": "", 
    "website": ""
  }, 
  {
    "country": "United States", 
    "id": "49f4f7ebf964a5207c6b1fe3", 
    "latitude": 40.7842264888759, 
    "locality": "New York", 
    "longitude": -73.9738114725178, 
    "name": "Caf\u00e9 Blossom", 
    "phone": "(212) 875-2600", 
    "postal_code": "10024", 
    "region": "NY", 
    "street_address": "466 Columbus Ave.", 
    "website": "http://blossomnyc.com"
  }, 
  {
    "country": "United States", 
    "id": "4c00684734ccc928dc92e1cd", 
    "latitude": 40.739181, 
    "locality": "New York", 
    "longitude": -74.00132, 
    "name": "Twisted Spoon", 
    "phone": null, 
    "postal_code": "10011", 
    "region": "NY", 
    "street_address": "230 W. 14th St.", 
    "website": ""
  }, 
  {
    "country": "United States", 
    "id": "50899553e4b0cc3702675b6e", 
    "latitude": 40.745618, 
    "locality": "New York", 
    "longitude": -73.986861, 
    "name": "Uri's Castle", 
    "phone": null, 
    "postal_code": "10001", 
    "region": "NY", 
    "street_address": "29 W. 27th St.", 
    "website": ""
  }, 
  {
    "country": "United States", 
    "id": "4a6e3e6bf964a5204dd41fe3", 
    "latitude": 40.7047820788124, 
    "locality": "New York", 
    "longitude": -74.009485244751, 
    "name": "Yorganic", 
    "phone": "(212) 968-9700", 
    "postal_code": "10004", 
    "region": "NY", 
    "street_address": "3 Hanover Sq.", 
    "website": ""
  }, 
  {
    "country": "United States", 
    "id": "4bd5c6f56798ef3bcfee638d", 
    "latitude": 40.7370241693763, 
    "locality": "New York", 
    "longitude": -73.9959930518415, 
    "name": "Subway", 
    "phone": null, 
    "postal_code": "10011", 
    "region": "NY", 
    "street_address": "47-49 W. 14th St.", 
    "website": ""
  }, 
  {
    "country": "United States", 
    "id": "4f6255abe4b09a0649283406", 
    "latitude": 40.7434035522115, 
    "locality": "New York", 
    "longitude": -73.9855424897826, 
    "name": "Jays Coffee Lounge", 
    "phone": null, 
    "postal_code": "", 
    "region": "NY", 
    "street_address": "S047 Office", 
    "website": ""
  }, 
  {
    "country": "United States", 
    "id": "4f329b2519836c91c7e82627", 
    "latitude": 40.749101, 
    "locality": "New York", 
    "longitude": -73.992006, 
    "name": "Gold Group of Atlanta", 
    "phone": "(212) 594-7817", 
    "postal_code": "", 
    "region": "NY", 
    "street_address": "1 Penn Plz.", 
    "website": ""
  }, 
  {
    "country": "United States", 
    "id": "50836734e4b0e99d0bf8152c", 
    "latitude": 40.769502, 
    "locality": "New York", 
    "longitude": -73.960555, 
    "name": "THE Couch", 
    "phone": null, 
    "postal_code": "10021", 
    "region": "NY", 
    "street_address": "", 
    "website": ""
  }, 
  {
    "country": "United States", 
    "id": "4d91d84e270e6ea897bb5bff", 
    "latitude": 40.730364, 
    "locality": "New York", 
    "longitude": -73.9924886, 
    "name": "Coffee cart at Waverly and Broadway", 
    "phone": null, 
    "postal_code": "", 
    "region": "NY", 
    "street_address": "", 
    "website": ""
  }, 
  {
    "country": "United States", 
    "id": "4cba39acc7228cfa4ed515ce", 
    "latitude": 40.8108508586884, 
    "locality": "New York", 
    "longitude": -73.939118, 
    "name": "Moca Garden", 
    "phone": "(212) 690-2747", 
    "postal_code": "10037", 
    "region": "NY", 
    "street_address": "2159 5th Ave.", 
    "website": ""
  }, 
  {
    "country": "United States", 
    "id": "51d75f25498e1aa1c00ef944", 
    "latitude": 40.732829, 
    "locality": "New York", 
    "longitude": -73.985578, 
    "name": "Winslow Public House", 
    "phone": null, 
    "postal_code": "10003", 
    "region": "NY", 
    "street_address": "243 E. 14th St.", 
    "website": ""
  }, 
  {
    "country": "United States", 
    "id": "4c3c85e3a9509c74b52e395b", 
    "latitude": 40.7588954203221, 
    "locality": "New York", 
    "longitude": -73.9701747894287, 
    "name": "Comme Ci Comme \u00c7a - Chef Samir Truck", 
    "phone": "(347) 935-9807", 
    "postal_code": "10022", 
    "region": "NY", 
    "street_address": "Moving Target!", 
    "website": "http://chefsamirtruck.com"
  }, 
  {
    "country": "United States", 
    "id": "51e04f0b498ef5e05f9de0f2", 
    "latitude": 40.710294, 
    "locality": "New York", 
    "longitude": -74.011434, 
    "name": "Adam's Halal Food Cart", 
    "phone": null, 
    "postal_code": "", 
    "region": "NY", 
    "street_address": "", 
    "website": ""
  }, 
  {
    "country": "United States", 
    "id": "4ddf1e3b18388714bb612d94", 
    "latitude": 40.7924122106392, 
    "locality": "New York", 
    "longitude": -73.9697766177766, 
    "name": "pizza 4", 
    "phone": null, 
    "postal_code": "", 
    "region": "NY", 
    "street_address": "", 
    "website": ""
  }, 
  {
    "country": "United States", 
    "id": "4f32cc0619836c91c7fbb259", 
    "latitude": 40.751669, 
    "locality": "New York", 
    "longitude": -73.992373, 
    "name": "Miss Katherine Psyhic Reading", 
    "phone": "(212) 564-3033", 
    "postal_code": "", 
    "region": "NY", 
    "street_address": "249 W. 34th St.", 
    "website": ""
  }, 
  {
    "country": "United States", 
    "id": "4ea72d1402d50d150e38a955", 
    "latitude": 40.7540029650161, 
    "locality": "New York", 
    "longitude": -73.9843797683716, 
    "name": "Aroma Espresso Bar @ Bryant Park Holiday Shops", 
    "phone": "(212) 533-1094", 
    "postal_code": "10018", 
    "region": "NY", 
    "street_address": "Bryant Park", 
    "website": "http://www.aromaus"
  }, 
  {
    "country": "United States", 
    "id": "4b675bf9f964a5202f4a2be3", 
    "latitude": 40.7833353396003, 
    "locality": "New York", 
    "longitude": -73.9526318478838, 
    "name": "Pioneer Supermarket", 
    "phone": "", 
    "postal_code": "10128", 
    "region": "NY", 
    "street_address": "1407 Lexington Ave.", 
    "website": ""
  }, 
  {
    "country": "United States", 
    "id": "50603d8b498efd4a9c3e4cea", 
    "latitude": 40.7633259868972, 
    "locality": "New York", 
    "longitude": -73.9723823515624, 
    "name": "Starbucks", 
    "phone": "(212) 759-1569", 
    "postal_code": "10022", 
    "region": "NY", 
    "street_address": "600 Madison Ave.", 
    "website": ""
  }, 
  {
    "country": "United States", 
    "id": "4d5eb921d7206ea8b045e0f1", 
    "latitude": 40.7148809, 
    "locality": "New York", 
    "longitude": -74.007964, 
    "name": "Tex-mexican Express", 
    "phone": "(212) 791-2438", 
    "postal_code": "10007", 
    "region": "NY", 
    "street_address": "63 Reade St.", 
    "website": ""
  }, 
  {
    "country": "United States", 
    "id": "4f327b6119836c91c7dc122b", 
    "latitude": 40.756581, 
    "locality": "New York", 
    "longitude": -73.986156, 
    "name": "Broadway Teleprompter SRVC", 
    "phone": "(212) 944-9090", 
    "postal_code": "", 
    "region": "NY", 
    "street_address": "1501 Broadway", 
    "website": ""
  }, 
  {
    "country": "United States", 
    "id": "50466c55e4b09100cacd9dab", 
    "latitude": 40.724178314209, 
    "locality": "New York", 
    "longitude": -73.9839172363281, 
    "name": "Pnina and Stephanie's apartment", 
    "phone": null, 
    "postal_code": "10009", 
    "region": "NY", 
    "street_address": "", 
    "website": ""
  }, 
  {
    "country": "United States", 
    "id": "4a01eff6f964a52012711fe3", 
    "latitude": 40.7111719907979, 
    "locality": "New York", 
    "longitude": -74.0154464511913, 
    "name": "Au Bon Pain", 
    "phone": "(212) 962-9421", 
    "postal_code": "10281", 
    "region": "NY", 
    "street_address": "200 Liberty St.", 
    "website": "http://www.aubonpain.com"
  }, 
  {
    "country": "United States", 
    "id": "49cc222df964a5204a591fe3", 
    "latitude": 40.7230298063774, 
    "locality": "New York", 
    "longitude": -73.9889399892055, 
    "name": "National Underground", 
    "phone": "(212) 475-0611", 
    "postal_code": "10002", 
    "region": "NY", 
    "street_address": "159 E. Houston St.", 
    "website": "http://www.thenationalunderground.com/newyorkvenue.html"
  }, 
  {
    "country": "United States", 
    "id": "4b7489d2f964a5209de22de3", 
    "latitude": 40.70928, 
    "locality": "New York", 
    "longitude": -74.00586, 
    "name": "Tandoor Palace", 
    "phone": "(212) 791-8981", 
    "postal_code": "10038", 
    "region": "NY", 
    "street_address": "88 Fulton St.", 
    "website": ""
  }, 
  {
    "country": "United States", 
    "id": "4d13d7c76d103704a9d91bbd", 
    "latitude": 40.731362, 
    "locality": "New York", 
    "longitude": -74.002947, 
    "name": "Pizza Roma", 
    "phone": "(212) 924-1970", 
    "postal_code": "10014", 
    "region": "NY", 
    "street_address": "259 Bleecker St.", 
    "website": "http://www.pizzaromanyc.com"
  }, 
  {
    "country": "United States", 
    "id": "49b5889bf964a520fa521fe3", 
    "latitude": 40.7337872945445, 
    "locality": "New York", 
    "longitude": -73.9930352568626, 
    "name": "The Grey Dog", 
    "phone": "(212) 414-4739", 
    "postal_code": "10003", 
    "region": "NY", 
    "street_address": "90 University Pl.", 
    "website": "http://www.thegreydog.com"
  }, 
  {
    "country": "United States", 
    "id": "4c001c63c30a2d7fda07121d", 
    "latitude": 40.758697, 
    "locality": "New York", 
    "longitude": -73.979141, 
    "name": "Ben & Jerry's Ice Cream Truck", 
    "phone": "", 
    "postal_code": "", 
    "region": "NY", 
    "street_address": "", 
    "website": ""
  }, 
  {
    "country": "United States", 
    "id": "4cb924c6dd41a35dff14e0a0", 
    "latitude": 40.72186, 
    "locality": "New York", 
    "longitude": -73.994175, 
    "name": "The Collinge", 
    "phone": null, 
    "postal_code": "10012", 
    "region": "NY", 
    "street_address": "", 
    "website": ""
  }, 
  {
    "country": "United States", 
    "id": "4ab26766f964a520146b20e3", 
    "latitude": 40.7554423602829, 
    "locality": "New York", 
    "longitude": -73.991247040677, 
    "name": "Starbucks", 
    "phone": "(212) 997-7337", 
    "postal_code": "10018", 
    "region": "NY", 
    "street_address": "600 8th Ave.", 
    "website": "http://www.starbucks.com"
  }, 
  {
    "country": "United States", 
    "id": "4a6484a5f964a5203ac61fe3", 
    "latitude": 40.7414979363343, 
    "locality": "New York", 
    "longitude": -74.0014708042145, 
    "name": "Paradise Cafe", 
    "phone": "(212) 647-0066", 
    "postal_code": "10011", 
    "region": "NY", 
    "street_address": "139 8th Ave.", 
    "website": "http://paradisecafenyc.com"
  }, 
  {
    "country": "United States", 
    "id": "4dbba016f7b1ab37dd4a62c4", 
    "latitude": 40.6766115, 
    "locality": "New York", 
    "longitude": -73.855748, 
    "name": "Wifeys Fried Chicken Spot", 
    "phone": null, 
    "postal_code": "11208", 
    "region": "NY", 
    "street_address": "543 Linden Blvd.", 
    "website": ""
  }, 
  {
    "country": "United States", 
    "id": "4f32608c19836c91c7d1ce50", 
    "latitude": 40.722829, 
    "locality": "New York", 
    "longitude": -73.995909, 
    "name": "Cake-o", 
    "phone": "(212) 925-4445", 
    "postal_code": "", 
    "region": "NY", 
    "street_address": "234 Mulberry St.", 
    "website": "http://www.cake-o.com"
  }, 
  {
    "country": "United States", 
    "id": "505114d9e4b04ec137447da9", 
    "latitude": 40.7250175476074, 
    "locality": "New York", 
    "longitude": -73.9882659912109, 
    "name": "the terrace", 
    "phone": null, 
    "postal_code": "10003", 
    "region": "NY", 
    "street_address": "", 
    "website": ""
  }, 
  {
    "country": "United States", 
    "id": "4f3221ba19836c91c7b93505", 
    "latitude": 40.708402, 
    "locality": "New York", 
    "longitude": -74.004788, 
    "name": "Frazier Foods", 
    "phone": "(212) 528-2930", 
    "postal_code": "", 
    "region": "NY", 
    "street_address": "52 Fulton St.", 
    "website": ""
  }, 
  {
    "country": "United States", 
    "id": "4a902fa5f964a520671620e3", 
    "latitude": 40.767614327004, 
    "locality": "New York", 
    "longitude": -73.982873803659, 
    "name": "Starbucks", 
    "phone": "(212) 265-0658", 
    "postal_code": "10019", 
    "region": "NY", 
    "street_address": "4 Columbus Cir.", 
    "website": ""
  }, 
  {
    "country": "United States", 
    "id": "51b7171b498e4bf56c651dd2", 
    "latitude": 40.719958, 
    "locality": "New York", 
    "longitude": -74.005179, 
    "name": "Coffee Cart", 
    "phone": null, 
    "postal_code": "10013", 
    "region": "NY", 
    "street_address": "Ave. Of The Americas", 
    "website": ""
  }, 
  {
    "country": "United States", 
    "id": "514b83fee4b01a82e673bce2", 
    "latitude": 40.722747, 
    "locality": "New York", 
    "longitude": -74.008013, 
    "name": "Taste Of Hope 2013 #cohwine", 
    "phone": null, 
    "postal_code": "", 
    "region": "NY", 
    "street_address": "10 Desbrosses", 
    "website": ""
  }, 
  {
    "country": "United States", 
    "id": "459f6987f964a520c0401fe3", 
    "latitude": 40.7212621845636, 
    "locality": "New York", 
    "longitude": -73.9828623253591, 
    "name": "El Maguey y La Tuna", 
    "phone": "(212) 473-3744", 
    "postal_code": "10002", 
    "region": "NY", 
    "street_address": "321 E. Houston St.", 
    "website": "http://elmagueylatunanyc.com"
  }, 
  {
    "country": "United States", 
    "id": "4ee047658231e61c74100b31", 
    "latitude": 40.7918030180452, 
    "locality": "New York", 
    "longitude": -73.9415549817341, 
    "name": "A A Deli Grocery", 
    "phone": null, 
    "postal_code": "10003", 
    "region": "NY", 
    "street_address": "107", 
    "website": ""
  }, 
  {
    "country": "United States", 
    "id": "4f326c6d19836c91c7d66819", 
    "latitude": 40.757118, 
    "locality": "New York", 
    "longitude": -73.967636, 
    "name": "Casablanca Cafe", 
    "phone": "(212) 752-2221", 
    "postal_code": "", 
    "region": "NY", 
    "street_address": "231 E. 53rd St.", 
    "website": "http://www.casablancacafe.com"
  }, 
  {
    "country": "United States", 
    "id": "4b7f4808f964a520a72430e3", 
    "latitude": 40.7429064350412, 
    "locality": "New York", 
    "longitude": -73.9820014509081, 
    "name": "Whiskey Rebel", 
    "phone": "(212) 686-3800", 
    "postal_code": "10016", 
    "region": "NY", 
    "street_address": "129 Lexington Ave.", 
    "website": "http://www.whiskeyrebelnyc.com"
  }, 
  {
    "country": "United States", 
    "id": "51e729c2498eb3383944116b", 
    "latitude": 40.7400446793424, 
    "locality": "New York", 
    "longitude": -73.989680314715, 
    "name": "Maison Kayser", 
    "phone": null, 
    "postal_code": "10010", 
    "region": "NY", 
    "street_address": "921 Broadway", 
    "website": ""
  }, 
  {
    "country": "United States", 
    "id": "4e11f21ce4cdef074b77d2fa", 
    "latitude": 40.8501877001664, 
    "locality": "New York", 
    "longitude": -73.9369149505789, 
    "name": "720 West 181st Street", 
    "phone": null, 
    "postal_code": "", 
    "region": "NY", 
    "street_address": "", 
    "website": ""
  }, 
  {
    "country": "United States", 
    "id": "4bc0f15f4cdfc9b6b0d29321", 
    "latitude": 40.7602433848416, 
    "locality": "New York", 
    "longitude": -73.9764745451004, 
    "name": "Soba Udon", 
    "phone": null, 
    "postal_code": "", 
    "region": "NY", 
    "street_address": "W. 52nd St.", 
    "website": ""
  }, 
  {
    "country": "United States", 
    "id": "4d004edff1605481eab39dea", 
    "latitude": 40.7422173338682, 
    "locality": "New York", 
    "longitude": -73.9857959747314, 
    "name": "Riff Raff's", 
    "phone": null, 
    "postal_code": "10001", 
    "region": "NY", 
    "street_address": "360 Park Ave. S.", 
    "website": ""
  }, 
  {
    "country": "United States", 
    "id": "4ab6e8b3f964a520737920e3", 
    "latitude": 40.742447236493, 
    "locality": "New York", 
    "longitude": -73.9838953696087, 
    "name": "Jazz Standard", 
    "phone": "(212) 447-7733", 
    "postal_code": "10010", 
    "region": "NY", 
    "street_address": "116 E. 27th St.", 
    "website": "http://bluesmoke.com"
  }, 
  {
    "country": "United States", 
    "id": "50e62f9de4b002e7395da666", 
    "latitude": 40.7208353074997, 
    "locality": "New York", 
    "longitude": -73.9841437339783, 
    "name": "Ivan Ramen", 
    "phone": null, 
    "postal_code": "10009", 
    "region": "NY", 
    "street_address": "25 Clinton St.", 
    "website": ""
  }, 
  {
    "country": "United States", 
    "id": "4ed8318de300851bf6da6984", 
    "latitude": 40.74032, 
    "locality": "New York", 
    "longitude": -74.000432, 
    "name": "The House Of Reggie", 
    "phone": null, 
    "postal_code": "10011", 
    "region": "NY", 
    "street_address": "", 
    "website": ""
  }, 
  {
    "country": "United States", 
    "id": "4b512af9f964a520a94527e3", 
    "latitude": 40.7586752013353, 
    "locality": "New York", 
    "longitude": -73.9890490295762, 
    "name": "Church's Chicken", 
    "phone": "(212) 315-9600", 
    "postal_code": "10036", 
    "region": "NY", 
    "street_address": "705 8th Ave.", 
    "website": ""
  }, 
  {
    "country": "United States", 
    "id": "41083e00f964a520980b1fe3", 
    "latitude": 40.7191158967135, 
    "locality": "New York", 
    "longitude": -74.0034303371494, 
    "name": "M1-5 Lounge", 
    "phone": "(212) 965-1701", 
    "postal_code": "10013", 
    "region": "NY", 
    "street_address": "52 Walker St.", 
    "website": "http://m1-5.com"
  }, 
  {
    "country": "United States", 
    "id": "4c408f9e6c1a95216050b96a", 
    "latitude": 40.745318, 
    "locality": "New York", 
    "longitude": -73.979165, 
    "name": "Le Parisien", 
    "phone": "(212) 889-5489", 
    "postal_code": "10016", 
    "region": "NY", 
    "street_address": "163 E. 33rd St.", 
    "website": ""
  }, 
  {
    "country": "United States", 
    "id": "51be42dc498ed389b273d14e", 
    "latitude": 40.70649, 
    "locality": "New York", 
    "longitude": -74.003879, 
    "name": "Whiskey Trading Post", 
    "phone": null, 
    "postal_code": "", 
    "region": "NY", 
    "street_address": "170 John St.", 
    "website": ""
  }, 
  {
    "country": "United States", 
    "id": "4d06fb1054d0236a5f13fcd5", 
    "latitude": 40.8468025250146, 
    "locality": "New York", 
    "longitude": -73.9372249382436, 
    "name": "Corner Deli", 
    "phone": null, 
    "postal_code": "", 
    "region": "NY", 
    "street_address": "179 St.", 
    "website": ""
  }, 
  {
    "country": "United States", 
    "id": "4f44091b19836ed00191e886", 
    "latitude": 40.798092, 
    "locality": "New York", 
    "longitude": -73.940674, 
    "name": "Manik Restaurant", 
    "phone": "(212) 860-1121", 
    "postal_code": "", 
    "region": "NY", 
    "street_address": "184 E. 116th St.", 
    "website": ""
  }, 
  {
    "country": "United States", 
    "id": "4b9990d1f964a520108435e3", 
    "latitude": 40.7338775189173, 
    "locality": "New York", 
    "longitude": -73.9881250539473, 
    "name": "Raymour & Flanigan Furniture | 14th Street", 
    "phone": "(646) 652-0372", 
    "postal_code": "10003", 
    "region": "NY", 
    "street_address": "133 E. 14th St.", 
    "website": "http://www.raymourflanigan.com"
  }, 
  {
    "country": "United States", 
    "id": "4f344fcde4b050dbc704745e", 
    "latitude": 40.74406, 
    "locality": "New York", 
    "longitude": -73.98774, 
    "name": "A Brothel", 
    "phone": null, 
    "postal_code": "10010", 
    "region": "NY", 
    "street_address": "27th St. And 5th Ave.", 
    "website": ""
  }, 
  {
    "country": "United States", 
    "id": "51282ccee4b069ea5e1db65e", 
    "latitude": 40.7185969494556, 
    "locality": "New York", 
    "longitude": -74.0007389454886, 
    "name": "The Lounge", 
    "phone": null, 
    "postal_code": "10013", 
    "region": "NY", 
    "street_address": "154 Grand St.", 
    "website": ""
  }, 
  {
    "country": "United States", 
    "id": "4fd2e170e4b0d1423fd6d6b3", 
    "latitude": 40.811395, 
    "locality": "New York", 
    "longitude": -73.956752, 
    "name": "The Tird Floor Lounge and Bistro", 
    "phone": null, 
    "postal_code": "10027", 
    "region": "NY", 
    "street_address": "", 
    "website": ""
  }, 
  {
    "country": "United States", 
    "id": "4f94fdc8e4b059d7db3229e7", 
    "latitude": 40.782542, 
    "locality": "New York", 
    "longitude": -73.979103, 
    "name": "West Way Foods", 
    "phone": null, 
    "postal_code": "10024", 
    "region": "NY", 
    "street_address": "", 
    "website": ""
  }, 
  {
    "country": "United States", 
    "id": "4f97435fe4b087cfab007dc8", 
    "latitude": 40.7451515197754, 
    "locality": "New York", 
    "longitude": -73.9754943847656, 
    "name": "french restaurants", 
    "phone": null, 
    "postal_code": "10003", 
    "region": "NY", 
    "street_address": "34 2nd Ave., New York, Ny 10003", 
    "website": ""
  }, 
  {
    "country": "United States", 
    "id": "4fbfb124e4b0c1dd0933dcf4", 
    "latitude": 40.7234257629456, 
    "locality": "New York", 
    "longitude": -73.976273668066, 
    "name": "Starbucks", 
    "phone": null, 
    "postal_code": "10010", 
    "region": "NY", 
    "street_address": "1st Ave.", 
    "website": ""
  }, 
  {
    "country": "United States", 
    "id": "4c49b2a41b430f47de20e5c3", 
    "latitude": 40.756257, 
    "locality": "New York", 
    "longitude": -73.985233, 
    "name": "Brooklyn Hummus", 
    "phone": null, 
    "postal_code": "10036", 
    "region": "NY", 
    "street_address": "Moving Target", 
    "website": ""
  }, 
  {
    "country": "United States", 
    "id": "4f831c11e4b0bc14199ba390", 
    "latitude": 40.7580984130964, 
    "locality": "New York", 
    "longitude": -73.9730423886636, 
    "name": "Valduccci's Pizza Truck", 
    "phone": null, 
    "postal_code": "10154", 
    "region": "NY", 
    "street_address": "Moving Target", 
    "website": ""
  }, 
  {
    "country": "United States", 
    "id": "3fd66200f964a520aee41ee3", 
    "latitude": 40.7387215260225, 
    "locality": "New York", 
    "longitude": -73.9874708076446, 
    "name": "Chango", 
    "phone": "(212) 477-1500", 
    "postal_code": "10003", 
    "region": "NY", 
    "street_address": "239 Park Ave. S.", 
    "website": ""
  }, 
  {
    "country": "United States", 
    "id": "4a5d3c4ef964a5206bbd1fe3", 
    "latitude": 40.738664, 
    "locality": "New York", 
    "longitude": -73.981006, 
    "name": "Limon", 
    "phone": "(212) 213-3343", 
    "postal_code": "10010", 
    "region": "NY", 
    "street_address": "238 E. 24th St.", 
    "website": ""
  }, 
  {
    "country": "United States", 
    "id": "519c4d32498e0a7d3573efc4", 
    "latitude": 40.7299270629883, 
    "locality": "New York", 
    "longitude": -73.9833908081055, 
    "name": "11th and 1st Halal Cart", 
    "phone": null, 
    "postal_code": "", 
    "region": "NY", 
    "street_address": "", 
    "website": ""
  }, 
  {
    "country": "United States", 
    "id": "4d2a6294c406721edc8683b6", 
    "latitude": 40.849751, 
    "locality": "New York", 
    "longitude": -73.933507, 
    "name": "Tacos Nezo", 
    "phone": "(212) 928-8532", 
    "postal_code": "10033", 
    "region": "NY", 
    "street_address": "1455 Saint Nicholas Ave.", 
    "website": ""
  }, 
  {
    "country": "United States", 
    "id": "4cd08dfb7b6854816f30c2f8", 
    "latitude": 40.74456236, 
    "locality": "New York", 
    "longitude": -73.99062657, 
    "name": "Moss Networks Presents: VIP MIX+MINGLE", 
    "phone": null, 
    "postal_code": "10010", 
    "region": "NY", 
    "street_address": "37 W. 26th St.", 
    "website": ""
  }, 
  {
    "country": "United States", 
    "id": "51892477498e1a1f88da6e6b", 
    "latitude": 40.742848, 
    "locality": "New York", 
    "longitude": -73.987023, 
    "name": "Friendship Fit To Go Mobile Mixer", 
    "phone": null, 
    "postal_code": "", 
    "region": "NY", 
    "street_address": "", 
    "website": ""
  }, 
  {
    "country": "United States", 
    "id": "4ad8b68cf964a520e71321e3", 
    "latitude": 40.7573644044655, 
    "locality": "New York", 
    "longitude": -73.9854850990733, 
    "name": "The Lodge @ 1515", 
    "phone": "(212) 846-6633", 
    "postal_code": "10036", 
    "region": "NY", 
    "street_address": "1515 Broadway", 
    "website": ""
  }, 
  {
    "country": "United States", 
    "id": "45fe3baef964a52082441fe3", 
    "latitude": 40.775635, 
    "locality": "New York", 
    "longitude": -73.953553, 
    "name": "Jack Russell's", 
    "phone": "(212) 472-2800", 
    "postal_code": "10028", 
    "region": "NY", 
    "street_address": "1591 2nd Ave.", 
    "website": "http://www.jackrussellsnyc.com"
  }, 
  {
    "country": "United States", 
    "id": "4c52c418d797e21e4757137e", 
    "latitude": 40.751516, 
    "locality": "New York", 
    "longitude": -73.98159, 
    "name": "40 st coffee stand", 
    "phone": null, 
    "postal_code": "10016", 
    "region": "NY", 
    "street_address": "", 
    "website": ""
  }, 
  {
    "country": "United States", 
    "id": "4a69ea8cf964a52033cc1fe3", 
    "latitude": 40.7197672246235, 
    "locality": "New York", 
    "longitude": -73.998506611126, 
    "name": "Saha Thai Cuisine", 
    "phone": "(212) 966-7886", 
    "postal_code": "10013", 
    "region": "NY", 
    "street_address": "227 Centre St.", 
    "website": ""
  }, 
  {
    "country": "United States", 
    "id": "4f32a60919836c91c7ec4003", 
    "latitude": 40.720028, 
    "locality": "New York", 
    "longitude": -73.818254, 
    "name": "Subway", 
    "phone": "(212) 318-4781", 
    "postal_code": "", 
    "region": "NY", 
    "street_address": "1 Main St.", 
    "website": ""
  }, 
  {
    "country": "United States", 
    "id": "4f32297719836c91c7bc432b", 
    "latitude": 40.782604, 
    "locality": "New York", 
    "longitude": -73.953032, 
    "name": "European Pizza Restaurant", 
    "phone": "(212) 534-5385", 
    "postal_code": "", 
    "region": "NY", 
    "street_address": "1626 3rd Ave.", 
    "website": ""
  }, 
  {
    "country": "United States", 
    "id": "517124f7e889ba9c9892fb79", 
    "latitude": 40.7144234258363, 
    "locality": "New York", 
    "longitude": -74.0068888664246, 
    "name": "Hummus & Pitas co. (Tribeca)", 
    "phone": "(212) 571-6700", 
    "postal_code": "10007", 
    "region": "NY", 
    "street_address": "79 Chambers St.", 
    "website": ""
  }, 
  {
    "country": "United States", 
    "id": "4ecd96e7cc219860f443f435", 
    "latitude": 40.7222983828859, 
    "locality": "New York", 
    "longitude": -73.9832583263113, 
    "name": "That Burger", 
    "phone": "", 
    "postal_code": "10009", 
    "region": "NY", 
    "street_address": "25 Ave. B", 
    "website": "http://www.thatburger.com"
  }, 
  {
    "country": "United States", 
    "id": "4fdbf29ee4b02cb4ec306bdd", 
    "latitude": 40.7302881865375, 
    "locality": "New York", 
    "longitude": -73.9802452550701, 
    "name": "Charlie's Den", 
    "phone": null, 
    "postal_code": "10009", 
    "region": "NY", 
    "street_address": "", 
    "website": ""
  }, 
  {
    "country": "United States", 
    "id": "4f31ae22e4b092d58beae4db", 
    "latitude": 40.742195486968, 
    "locality": "New York", 
    "longitude": -73.9988738864339, 
    "name": "Stick&pop", 
    "phone": "(646) 481-4767", 
    "postal_code": "10011", 
    "region": "NY", 
    "street_address": "233 West 19th St.", 
    "website": ""
  }, 
  {
    "country": "United States", 
    "id": "4aa05a78f964a520493f20e3", 
    "latitude": 40.7396755146709, 
    "locality": "New York", 
    "longitude": -74.0021334239295, 
    "name": "The Girl from Ipanema", 
    "phone": "(212) 807-0150", 
    "postal_code": "10011", 
    "region": "NY", 
    "street_address": "252 W. 14th St.", 
    "website": ""
  }, 
  {
    "country": "United States", 
    "id": "4b8479faf964a520c73731e3", 
    "latitude": 40.759789, 
    "locality": "New York", 
    "longitude": -73.99525056, 
    "name": "Happy Family Chinese Restaurant", 
    "phone": "(212) 695-6035", 
    "postal_code": "10036", 
    "region": "NY", 
    "street_address": "500 W. 43rd St.", 
    "website": ""
  }, 
  {
    "country": "United States", 
    "id": "505e3f84e4b08dae9b7f9f6a", 
    "latitude": 40.753129, 
    "locality": "New York", 
    "longitude": -73.974951, 
    "name": "Kenny Babbo's Escalade", 
    "phone": null, 
    "postal_code": "10170", 
    "region": "NY", 
    "street_address": "", 
    "website": ""
  }, 
  {
    "country": "United States", 
    "id": "4d55b5a3e7f1a1cd2a8bfda4", 
    "latitude": 40.7634789924717, 
    "locality": "New York", 
    "longitude": -73.9889112943608, 
    "name": "Uncle Mario's", 
    "phone": "", 
    "postal_code": "10019", 
    "region": "NY", 
    "street_address": "772 9th Ave.", 
    "website": ""
  }, 
  {
    "country": "United States", 
    "id": "4ea6db6d29c2c61b4525e802", 
    "latitude": 40.738665, 
    "locality": "New York", 
    "longitude": -73.982588, 
    "name": "Breakfast Cart", 
    "phone": null, 
    "postal_code": "10010", 
    "region": "NY", 
    "street_address": "23rd St. And 3rd Ave.", 
    "website": ""
  }, 
  {
    "country": "United States", 
    "id": "522bbe0b11d2acea93662bb5", 
    "latitude": 40.778564453125, 
    "locality": "New York", 
    "longitude": -73.9476318359375, 
    "name": "biddy's Pub", 
    "phone": null, 
    "postal_code": "10128", 
    "region": "NY", 
    "street_address": "301 91st St.", 
    "website": ""
  }, 
  {
    "country": "United States", 
    "id": "4f91dd51c2ee283f4c41a23f", 
    "latitude": 40.7479884901026, 
    "locality": "New York", 
    "longitude": -73.9875340461731, 
    "name": "Korea Spoon", 
    "phone": "(212) 560-9696", 
    "postal_code": "10001", 
    "region": "NY", 
    "street_address": "39 W. 32nd St.", 
    "website": ""
  }, 
  {
    "country": "United States", 
    "id": "4f323a5d19836c91c7c2c83e", 
    "latitude": 40.752286, 
    "locality": "New York", 
    "longitude": -73.985516, 
    "name": "Sixth Avenue Express Deli", 
    "phone": "(212) 768-8781", 
    "postal_code": "", 
    "region": "NY", 
    "street_address": "1020 Ave. Of The Americas", 
    "website": ""
  }, 
  {
    "country": "United States", 
    "id": "4f79b09ee4b0e0abc66af389", 
    "latitude": 40.76177, 
    "locality": "New York", 
    "longitude": -73.981908, 
    "name": "Venti Black Tea Lemonade 4 Pump Classic", 
    "phone": null, 
    "postal_code": "10019", 
    "region": "NY", 
    "street_address": "", 
    "website": ""
  }, 
  {
    "country": "United States", 
    "id": "5192c9db498ef251119df9b5", 
    "latitude": 40.757578, 
    "locality": "New York", 
    "longitude": -73.986013, 
    "name": "1515 Lounge", 
    "phone": null, 
    "postal_code": "10036", 
    "region": "NY", 
    "street_address": "1515 Broadway", 
    "website": ""
  }, 
  {
    "country": "United States", 
    "id": "4f2ed62ae4b010c5f73c907e", 
    "latitude": 40.7170949775749, 
    "locality": "New York", 
    "longitude": -73.9984033148188, 
    "name": "Noodle Bar", 
    "phone": null, 
    "postal_code": "10013", 
    "region": "NY", 
    "street_address": "200 Canal St.", 
    "website": ""
  }, 
  {
    "country": "United States", 
    "id": "4c24cfeeb7b8a593df0f3de8", 
    "latitude": 40.8515136092767, 
    "locality": "New York", 
    "longitude": -73.9285450962901, 
    "name": "Grandma's Pizza", 
    "phone": "(212) 927-4895", 
    "postal_code": "10033", 
    "region": "NY", 
    "street_address": "2551 Amsterdam Ave.", 
    "website": ""
  }, 
  {
    "country": "United States", 
    "id": "4f32667719836c91c7d41837", 
    "latitude": 40.741902, 
    "locality": "New York", 
    "longitude": -73.982845, 
    "name": "Da Giovanni Restaurant", 
    "phone": "(212) 532-8699", 
    "postal_code": "", 
    "region": "NY", 
    "street_address": "140 E. 27th St.", 
    "website": ""
  }, 
  {
    "country": "United States", 
    "id": "50e7063d90e7fdaf6fbc7ac5", 
    "latitude": 40.7665665853841, 
    "locality": "New York", 
    "longitude": -73.970775604248, 
    "name": "Some of The Girls 3rd Annual Afternoon Tea", 
    "phone": null, 
    "postal_code": "10065", 
    "region": "NY", 
    "street_address": "28 E. 63 St.", 
    "website": ""
  }, 
  {
    "country": "United States", 
    "id": "5218058311d2681bb2a63d6c", 
    "latitude": 40.760578, 
    "locality": "New York", 
    "longitude": -73.962322, 
    "name": "Prime 333 Steakhouse", 
    "phone": null, 
    "postal_code": "10022", 
    "region": "NY", 
    "street_address": "333 E. 60th St.", 
    "website": ""
  }, 
  {
    "country": "United States", 
    "id": "519f73f0498ed272d9b5e12b", 
    "latitude": 40.7736154, 
    "locality": "New York", 
    "longitude": -73.9711057, 
    "name": "Kitchenette,Tribeca park Central park", 
    "phone": null, 
    "postal_code": "", 
    "region": "NY", 
    "street_address": "Central Park", 
    "website": ""
  }, 
  {
    "country": "United States", 
    "id": "4aa44e08f964a5204f4620e3", 
    "latitude": 40.7484020490043, 
    "locality": "New York", 
    "longitude": -73.9849628428305, 
    "name": "Chipotle Mexican Grill", 
    "phone": "(212) 695-0412", 
    "postal_code": "10118", 
    "region": "NY", 
    "street_address": "350 Fifth Ave. / Ste 4 5", 
    "website": "http://www.chipotle.com"
  }, 
  {
    "country": "United States", 
    "id": "4bca85b1511f95211e15b0c7", 
    "latitude": 40.721779, 
    "locality": "New York", 
    "longitude": -73.990218, 
    "name": "Le Chateau Bow Wow", 
    "phone": null, 
    "postal_code": "10002", 
    "region": "NY", 
    "street_address": "57 Stanton St.", 
    "website": ""
  }, 
  {
    "country": "United States", 
    "id": "4d79a0d8542ab1f715e78041", 
    "latitude": 40.7256429955982, 
    "locality": "New York", 
    "longitude": -74.006081521784, 
    "name": "Todd Hase Furniture, Inc.", 
    "phone": "(212) 871-9075", 
    "postal_code": "10013", 
    "region": "NY", 
    "street_address": "261 Spring St.", 
    "website": ""
  }, 
  {
    "country": "United States", 
    "id": "4c804cc374d7b60c48a96cd8", 
    "latitude": 40.7263190355437, 
    "locality": "New York", 
    "longitude": -73.9770255210325, 
    "name": "Happy Wok", 
    "phone": "(212) 228-2555", 
    "postal_code": "10009", 
    "region": "NY", 
    "street_address": "175 Ave. C", 
    "website": ""
  }, 
  {
    "country": "United States", 
    "id": "4e61dc23483bd9a97412ad60", 
    "latitude": 40.7223493509289, 
    "locality": "New York", 
    "longitude": -73.9858064868245, 
    "name": "Stay", 
    "phone": null, 
    "postal_code": "10009", 
    "region": "NY", 
    "street_address": "", 
    "website": ""
  }, 
  {
    "country": "United States", 
    "id": "4bcb7afb511f9521e896b1c7", 
    "latitude": 40.7643932601274, 
    "locality": "New York", 
    "longitude": -73.9919816184071, 
    "name": "Desi Deli", 
    "phone": "(212) 399-9007", 
    "postal_code": "10019", 
    "region": "NY", 
    "street_address": "724 10th Ave.", 
    "website": "http://desideli.com"
  }, 
  {
    "country": "United States", 
    "id": "4f32408919836c91c7c537fa", 
    "latitude": 40.727073, 
    "locality": "New York", 
    "longitude": -73.988, 
    "name": "Rose of India", 
    "phone": "(212) 533-5011", 
    "postal_code": "", 
    "region": "NY", 
    "street_address": "308 E. 6th St.", 
    "website": ""
  }, 
  {
    "country": "United States", 
    "id": "4c45fdcff9652d7fd2c4132b", 
    "latitude": 40.7565364837682, 
    "locality": "New York", 
    "longitude": -73.9822941486541, 
    "name": "Cassa Hotel New York", 
    "phone": "(212) 302-8700", 
    "postal_code": "10036", 
    "region": "NY", 
    "street_address": "70 W. 45th St.", 
    "website": ""
  }, 
  {
    "country": "United States", 
    "id": "4cceb7cc54f0b1f7c9b723ca", 
    "latitude": 40.750609, 
    "locality": "New York", 
    "longitude": -73.9833850333333, 
    "name": "Fruit Stand", 
    "phone": null, 
    "postal_code": "10018", 
    "region": "NY", 
    "street_address": "1 W. 37th St.", 
    "website": ""
  }, 
  {
    "country": "United States", 
    "id": "5025c92ee4b0435879695f92", 
    "latitude": 40.740049, 
    "locality": "New York", 
    "longitude": -73.988821, 
    "name": "Club Baby Seals", 
    "phone": null, 
    "postal_code": "10010", 
    "region": "NY", 
    "street_address": "", 
    "website": ""
  }, 
  {
    "country": "United States", 
    "id": "50799462498e98df0ec2dcfd", 
    "latitude": 40.7441619407898, 
    "locality": "New York", 
    "longitude": -73.9743337590546, 
    "name": "Club DJMumbai", 
    "phone": null, 
    "postal_code": "10016", 
    "region": "NY", 
    "street_address": "340 E. 34th St.", 
    "website": ""
  }, 
  {
    "country": "United States", 
    "id": "4b3ce3f4f964a520088925e3", 
    "latitude": 40.7273238119638, 
    "locality": "New York", 
    "longitude": -74.0018033981323, 
    "name": "Joe's Dairy", 
    "phone": "(212) 677-8780", 
    "postal_code": "10012", 
    "region": "NY", 
    "street_address": "156 Sullivan St., Frnt A", 
    "website": ""
  }, 
  {
    "country": "United States", 
    "id": "4c0ab529a1b32d7fd8d599f0", 
    "latitude": 40.7987505540177, 
    "locality": "New York", 
    "longitude": -73.9411227037749, 
    "name": "Domino's Pizza", 
    "phone": "(212) 831-1024", 
    "postal_code": "10029", 
    "region": "NY", 
    "street_address": "153 E. 116th St.", 
    "website": "http://www.dominos.com"
  }, 
  {
    "country": "United States", 
    "id": "4e2a37d37d8b7deda6c3cff4", 
    "latitude": 40.730421, 
    "locality": "New York", 
    "longitude": -74.0037749627431, 
    "name": "The Penthouse Lounge", 
    "phone": null, 
    "postal_code": "10014", 
    "region": "NY", 
    "street_address": "26 Leroy St.", 
    "website": ""
  }, 
  {
    "country": "United States", 
    "id": "4bcddf9c0687ef3b969be1cc", 
    "latitude": 40.766310095787, 
    "locality": "New York", 
    "longitude": -73.9827275276184, 
    "name": "Meat Cart", 
    "phone": null, 
    "postal_code": "10019", 
    "region": "NY", 
    "street_address": "57th St.", 
    "website": ""
  }, 
  {
    "country": "United States", 
    "id": "433b2e80f964a52038281fe3", 
    "latitude": 40.751308, 
    "locality": "New York", 
    "longitude": -73.983529, 
    "name": "OBW Bar & Grill", 
    "phone": null, 
    "postal_code": "10018", 
    "region": "NY", 
    "street_address": "20 W. 38th St.", 
    "website": ""
  }, 
  {
    "country": "United States", 
    "id": "4f132b78e4b0725fed9a3c28", 
    "latitude": 40.7572434516722, 
    "locality": "New York", 
    "longitude": -73.9897778767785, 
    "name": "South Philly Steaks", 
    "phone": null, 
    "postal_code": "10036", 
    "region": "NY", 
    "street_address": "", 
    "website": ""
  }, 
  {
    "country": "United States", 
    "id": "521d6349498e4164db05510e", 
    "latitude": 40.737707, 
    "locality": "New York", 
    "longitude": -74.005863, 
    "name": "Bar Bolonat", 
    "phone": null, 
    "postal_code": "10014", 
    "region": "NY", 
    "street_address": "611 Hudson St.", 
    "website": ""
  }, 
  {
    "country": "United States", 
    "id": "4c61ef9169a1c9b60c9f37a4", 
    "latitude": 40.7652684899489, 
    "locality": "New York", 
    "longitude": -73.9802854296641, 
    "name": "Tratoria", 
    "phone": null, 
    "postal_code": "10038", 
    "region": "NY", 
    "street_address": "", 
    "website": ""
  }, 
  {
    "country": "United States", 
    "id": "4b6c3084f964a5207a282ce3", 
    "latitude": 40.714375, 
    "locality": "New York", 
    "longitude": -74.010058, 
    "name": "Corner Gourmet II", 
    "phone": "(212) 406-2200", 
    "postal_code": "10007", 
    "region": "NY", 
    "street_address": "66 W. Broadway", 
    "website": ""
  }, 
  {
    "country": "United States", 
    "id": "50776130e4b0602b6168ab41", 
    "latitude": 40.726159, 
    "locality": "New York", 
    "longitude": -73.991429, 
    "name": "Save The Sound by Auduban Society at The Bowery Hotel", 
    "phone": null, 
    "postal_code": "10003", 
    "region": "NY", 
    "street_address": "", 
    "website": ""
  }, 
  {
    "country": "United States", 
    "id": "4f3232d119836c91c7bfd716", 
    "latitude": 40.74038, 
    "locality": "New York", 
    "longitude": -74.00816, 
    "name": "Adolph Reiner Meat Co", 
    "phone": "(212) 675-7584", 
    "postal_code": "", 
    "region": "NY", 
    "street_address": "48 Little West 12th St.", 
    "website": ""
  }, 
  {
    "country": "United States", 
    "id": "4b284ea7f964a520519224e3", 
    "latitude": 40.8038840783724, 
    "locality": "New York", 
    "longitude": -73.9558749492916, 
    "name": "283 W 115th St Corp.", 
    "phone": "(212) 865-1910", 
    "postal_code": "10026", 
    "region": "NY", 
    "street_address": "283 W. 115th St.", 
    "website": ""
  }, 
  {
    "country": "United States", 
    "id": "4fff3023e4b04497d9436ca4", 
    "latitude": 40.7185825671496, 
    "locality": "New York", 
    "longitude": -73.9900418679956, 
    "name": "Pop Karma", 
    "phone": "(917) 675-7450", 
    "postal_code": "10002", 
    "region": "NY", 
    "street_address": "95 Orchard St.", 
    "website": "http://www.popkarma.com"
  }, 
  {
    "country": "United States", 
    "id": "4bb8364bb35776b08bc6c801", 
    "latitude": 40.73522624861, 
    "locality": "New York", 
    "longitude": -73.9917182922363, 
    "name": "Patty's Taco Truck", 
    "phone": "", 
    "postal_code": "10003", 
    "region": "NY", 
    "street_address": "At W. 14th St. & Union Sq. W.", 
    "website": ""
  }, 
  {
    "country": "United States", 
    "id": "4c0048a137850f47a410983f", 
    "latitude": 40.7497553359938, 
    "locality": "New York", 
    "longitude": -73.976382715625, 
    "name": "St. Giles Hotel New York - The Court & The Tuscany", 
    "phone": "(212) 686-1600", 
    "postal_code": "10016", 
    "region": "NY", 
    "street_address": "120-130 E. 39th St.", 
    "website": "http://stgilesnewyork.com"
  }, 
  {
    "country": "United States", 
    "id": "4a2472d2f964a5201f7e1fe3", 
    "latitude": 40.76565, 
    "locality": "New York", 
    "longitude": -73.978738, 
    "name": "Bella Vita Pizzeria", 
    "phone": "(212) 664-7670", 
    "postal_code": "10019", 
    "region": "NY", 
    "street_address": "158 W. 58th St.", 
    "website": "http://bellavitapizzeria.com"
  }, 
  {
    "country": "United States", 
    "id": "4b60f5ccf964a5209c032ae3", 
    "latitude": 40.7170018570214, 
    "locality": "New York", 
    "longitude": -73.9899902175687, 
    "name": "Subway", 
    "phone": "(917) 691-9839", 
    "postal_code": "10002", 
    "region": "NY", 
    "street_address": "334 Grand St.", 
    "website": ""
  }, 
  {
    "country": "United States", 
    "id": "4cd1d3a22fd9b60cdb2089eb", 
    "latitude": 40.7633035908169, 
    "locality": "New York", 
    "longitude": -73.9801132527738, 
    "name": "London Hotel", 
    "phone": null, 
    "postal_code": "10019", 
    "region": "NY", 
    "street_address": "856 7th Ave.", 
    "website": ""
  }, 
  {
    "country": "United States", 
    "id": "4f323bff19836c91c7c36b1b", 
    "latitude": 40.86082, 
    "locality": "New York", 
    "longitude": -73.926971, 
    "name": "RC Deli", 
    "phone": "(260) 458-4865", 
    "postal_code": "", 
    "region": "NY", 
    "street_address": "112 Nagle Ave.", 
    "website": ""
  }, 
  {
    "country": "United States", 
    "id": "4cbcf910035d236a23a7e84e", 
    "latitude": 40.7585370540619, 
    "locality": "New York", 
    "longitude": -73.988966345787, 
    "name": "Arthur Treacher's", 
    "phone": null, 
    "postal_code": "10036", 
    "region": "NY", 
    "street_address": "", 
    "website": ""
  }, 
  {
    "country": "United States", 
    "id": "44d5bb1cf964a52056361fe3", 
    "latitude": 40.7293726819538, 
    "locality": "New York", 
    "longitude": -73.9892506599426, 
    "name": "Cafe Fuego", 
    "phone": "(212) 677-7300", 
    "postal_code": "10003", 
    "region": "NY", 
    "street_address": "9 Saint Marks Pl.", 
    "website": ""
  }, 
  {
    "country": "United States", 
    "id": "4b4b74eaf964a520709c26e3", 
    "latitude": 40.7052426161955, 
    "locality": "New York", 
    "longitude": -74.0080038945907, 
    "name": "Wall & Water", 
    "phone": "", 
    "postal_code": "10005", 
    "region": "NY", 
    "street_address": "Andaz Hotel", 
    "website": ""
  }, 
  {
    "country": "United States", 
    "id": "4f32b93019836c91c7f36e86", 
    "latitude": 40.734495, 
    "locality": "New York", 
    "longitude": -74.001172, 
    "name": "Highland Restaurant NYC", 
    "phone": "(212) 229-2670", 
    "postal_code": "", 
    "region": "NY", 
    "street_address": "150 W. 10th St.", 
    "website": "http://www.highlands-nyc.com"
  }, 
  {
    "country": "United States", 
    "id": "4e4c3b45bd413c4cc667d4fd", 
    "latitude": 40.7402562886341, 
    "locality": "New York", 
    "longitude": -74.0079235570095, 
    "name": "Kiva Cafe", 
    "phone": "(212) 229-0898", 
    "postal_code": "10013", 
    "region": "NY", 
    "street_address": "229 Hudson St.", 
    "website": ""
  }, 
  {
    "country": "United States", 
    "id": "4a0c616ff964a52026751fe3", 
    "latitude": 40.743691, 
    "locality": "Sunnyside", 
    "longitude": -73.925639, 
    "name": "Pete's Diner & Grill", 
    "phone": "(718) 937-2220", 
    "postal_code": "11104", 
    "region": "NY", 
    "street_address": "3914 Queens Blvd.", 
    "website": ""
  }, 
  {
    "country": "United States", 
    "id": "4e205c5118a88345f03f63ac", 
    "latitude": 40.7563626977883, 
    "locality": "New York", 
    "longitude": -73.9819555374957, 
    "name": "Bar1 nyc", 
    "phone": null, 
    "postal_code": "10036", 
    "region": "NY", 
    "street_address": "56 W. 45th St.", 
    "website": ""
  }, 
  {
    "country": "United States", 
    "id": "4f32240c19836c91c7ba2429", 
    "latitude": 40.751951, 
    "locality": "New York", 
    "longitude": -73.993877, 
    "name": "Olde Triangle Caterers", 
    "phone": "(212) 630-0241", 
    "postal_code": "", 
    "region": "NY", 
    "street_address": "5 Penn Plz.", 
    "website": ""
  }, 
  {
    "country": "United States", 
    "id": "4f44fb6219836ed00197e7de", 
    "latitude": 40.716131, 
    "locality": "New York", 
    "longitude": -73.991836, 
    "name": "Xiao, Hong Yu", 
    "phone": "(212) 343-2373", 
    "postal_code": "", 
    "region": "NY", 
    "street_address": "38 Allen St.", 
    "website": ""
  }, 
  {
    "country": "United States", 
    "id": "4a00e1bff964a520be701fe3", 
    "latitude": 40.714912, 
    "locality": "New York", 
    "longitude": -73.998199, 
    "name": "Mee Sun Cafe", 
    "phone": "(270) 696-4865", 
    "postal_code": "10013", 
    "region": "NY", 
    "street_address": "26 Pell St.", 
    "website": ""
  }, 
  {
    "country": "United States", 
    "id": "502a9e77e4b0363ccfc8ae2c", 
    "latitude": 40.7202736094456, 
    "locality": "New York", 
    "longitude": -73.9986730328371, 
    "name": "ADstruc Caf\u00e9", 
    "phone": null, 
    "postal_code": "10013", 
    "region": "NY", 
    "street_address": "241 Centre St. (7th Floor)", 
    "website": ""
  }, 
  {
    "country": "United States", 
    "id": "500c6444e4b0e68938acc1d9", 
    "latitude": 40.8451512123998, 
    "locality": "New York", 
    "longitude": -73.9380171266895, 
    "name": "Da Heights Lounge", 
    "phone": null, 
    "postal_code": "10033", 
    "region": "NY", 
    "street_address": "", 
    "website": ""
  }, 
  {
    "country": "United States", 
    "id": "4bde28866c1b9521ac51ad0f", 
    "latitude": 40.7501390578507, 
    "locality": "New York", 
    "longitude": -73.9948682520785, 
    "name": "Ichiban Japanese Restaurant", 
    "phone": "(212) 268-1888", 
    "postal_code": "10001", 
    "region": "NY", 
    "street_address": "409 8th Ave.", 
    "website": ""
  }, 
  {
    "country": "United States", 
    "id": "4caf1f071168a09395841f23", 
    "latitude": 40.760034011463, 
    "locality": "New York", 
    "longitude": -73.9829139777035, 
    "name": "Fruit Truck", 
    "phone": null, 
    "postal_code": "", 
    "region": "NY", 
    "street_address": "150 50th St.", 
    "website": ""
  }, 
  {
    "country": "United States", 
    "id": "517074ece4b0b0c87744eff4", 
    "latitude": 40.7393459493696, 
    "locality": "New York", 
    "longitude": -74.0069021191067, 
    "name": "55 Gansevoort", 
    "phone": null, 
    "postal_code": "", 
    "region": "NY", 
    "street_address": "", 
    "website": ""
  }, 
  {
    "country": "United States", 
    "id": "4f3268c519836c91c7d4fdfb", 
    "latitude": 40.707006, 
    "locality": "New York", 
    "longitude": -74.007239, 
    "name": "Little Caesars Pizza", 
    "phone": "(212) 482-8280", 
    "postal_code": "", 
    "region": "NY", 
    "street_address": "90 Maiden Ln.", 
    "website": ""
  }, 
  {
    "country": "United States", 
    "id": "4b01f66df964a520db4622e3", 
    "latitude": 40.7878088, 
    "locality": "New York", 
    "longitude": -73.977531, 
    "name": "Deli Kasbah BBQ & Grill", 
    "phone": "(212) 496-1500", 
    "postal_code": "10024", 
    "region": "NY", 
    "street_address": "251 W. 85th St.", 
    "website": "http://www.delikasbah.com"
  }, 
  {
    "country": "United States", 
    "id": "4f3c8967e4b02fa0cf4e9148", 
    "latitude": 40.7318326, 
    "locality": "New York", 
    "longitude": -73.9841488, 
    "name": "Bar 95 South (Franklin Ave. & Sterling)", 
    "phone": null, 
    "postal_code": "10003", 
    "region": "NY", 
    "street_address": "", 
    "website": ""
  }, 
  {
    "country": "United States", 
    "id": "4f325c4719836c91c7d023db", 
    "latitude": 40.7152, 
    "locality": "New York", 
    "longitude": -74.0089, 
    "name": "Popeyes Chicken and Biscuits", 
    "phone": "(212) 587-3255", 
    "postal_code": "", 
    "region": "NY", 
    "street_address": "112 Chambers St.", 
    "website": ""
  }, 
  {
    "country": "United States", 
    "id": "4edd43af7bebc29455367992", 
    "latitude": 40.7129311618756, 
    "locality": "New York", 
    "longitude": -74.0096434950829, 
    "name": "Aroma Espresso Bar", 
    "phone": "(212) 346-0095", 
    "postal_code": "10007", 
    "region": "NY", 
    "street_address": "100 Church St.", 
    "website": "http://www.aroma.us"
  }, 
  {
    "country": "United States", 
    "id": "4db739d841592dd82ee2b3dd", 
    "latitude": 40.7042730945516, 
    "locality": "New York", 
    "longitude": -74.0103623613975, 
    "name": "Luke's Lobster FiDi", 
    "phone": "(212) 747-1700", 
    "postal_code": "10004", 
    "region": "NY", 
    "street_address": "26 S. William St.", 
    "website": "http://www.lukeslobster.com/fidi"
  }, 
  {
    "country": "United States", 
    "id": "4e4c3e1bbd413c4cc667e59c", 
    "latitude": 40.761512, 
    "locality": "New York", 
    "longitude": -73.98426, 
    "name": "Harmony View Bar", 
    "phone": "(212) 957-5100", 
    "postal_code": "10019", 
    "region": "NY", 
    "street_address": "210 W. 50th St.", 
    "website": ""
  }, 
  {
    "country": "United States", 
    "id": "4c37d1c293db0f47b6942092", 
    "latitude": 40.7296317743831, 
    "locality": "New York", 
    "longitude": -73.9896975315534, 
    "name": "Dessert Truck", 
    "phone": "", 
    "postal_code": "10003", 
    "region": "NY", 
    "street_address": "E. 11th St. & 3rd Ave.", 
    "website": ""
  }, 
  {
    "country": "United States", 
    "id": "4f3257e619836c91c7ce6b37", 
    "latitude": 40.751522, 
    "locality": "New York", 
    "longitude": -73.980221, 
    "name": "Hopkins Foodservice Specialists", 
    "phone": "(212) 679-9293", 
    "postal_code": "", 
    "region": "NY", 
    "street_address": "280 Madison Ave.", 
    "website": ""
  }, 
  {
    "country": "United States", 
    "id": "4a8301aef964a520d0f91fe3", 
    "latitude": 40.74557, 
    "locality": "New York", 
    "longitude": -73.994471, 
    "name": "City Food Bar", 
    "phone": "(917) 661-9110", 
    "postal_code": "10001", 
    "region": "NY", 
    "street_address": "275 7th Ave.", 
    "website": ""
  }, 
  {
    "country": "United States", 
    "id": "4c31092966e40f475d70c48b", 
    "latitude": 40.7321531903256, 
    "locality": "New York", 
    "longitude": -73.9968037605286, 
    "name": "Curry Kitchen", 
    "phone": "(212) 982-2900", 
    "postal_code": "10011", 
    "region": "NY", 
    "street_address": "40 W. 8th St.", 
    "website": "http://www.currykitchen.net"
  }, 
  {
    "country": "United States", 
    "id": "4fac336ae4b03525f2bd5ccd", 
    "latitude": 40.740429393294, 
    "locality": "New York", 
    "longitude": -73.9961078269564, 
    "name": "The Luxury Review", 
    "phone": null, 
    "postal_code": "10011", 
    "region": "NY", 
    "street_address": "", 
    "website": ""
  }, 
  {
    "country": "United States", 
    "id": "4c6e756c4d24b60c03a4d8d8", 
    "latitude": 42.3530799270994, 
    "locality": "New York", 
    "longitude": -71.054080112219, 
    "name": "Crumbs Cupcake", 
    "phone": null, 
    "postal_code": "02210", 
    "region": "NY", 
    "street_address": "", 
    "website": ""
  }, 
  {
    "country": "United States", 
    "id": "51ed130a498e21212ba11466", 
    "latitude": 40.7054687512392, 
    "locality": "New York", 
    "longitude": -73.9997978102663, 
    "name": "Grandma's house", 
    "phone": null, 
    "postal_code": "", 
    "region": "NY", 
    "street_address": "", 
    "website": ""
  }, 
  {
    "country": "United States", 
    "id": "4b44c9b4f964a52030fc25e3", 
    "latitude": 40.751681, 
    "locality": "New York", 
    "longitude": -73.974069, 
    "name": "Five Guys", 
    "phone": "(646) 783-5060", 
    "postal_code": "10017", 
    "region": "NY", 
    "street_address": "690 3rd Ave.", 
    "website": "http://www.fiveguys.com"
  }, 
  {
    "country": "United States", 
    "id": "5103351ee4b0ad7f2e01d882", 
    "latitude": 40.7539305766955, 
    "locality": "New York", 
    "longitude": -73.9896516199811, 
    "name": "Tagine Dining Gallery", 
    "phone": null, 
    "postal_code": "10018", 
    "region": "NY", 
    "street_address": "221 W. 38th St.", 
    "website": ""
  }, 
  {
    "country": "United States", 
    "id": "4b7b37b9f964a520a4582fe3", 
    "latitude": 40.7591787096339, 
    "locality": "New York", 
    "longitude": -73.9881537489095, 
    "name": "Frankie and Johnnie's Steakhouse", 
    "phone": "(212) 997-9494", 
    "postal_code": "10036", 
    "region": "NY", 
    "street_address": "269 W. 45th St.", 
    "website": "http://www.frankieandjohnnies.com"
  }, 
  {
    "country": "United States", 
    "id": "4bd9fa64c79cc9280be47ce9", 
    "latitude": 40.7775592803955, 
    "locality": "New York", 
    "longitude": -73.9488458633423, 
    "name": "Sedutto", 
    "phone": "(212) 876-1604", 
    "postal_code": "", 
    "region": "NY", 
    "street_address": "1666 1st Ave.", 
    "website": ""
  }, 
  {
    "country": "United States", 
    "id": "4fa163a4e4b00c5d71cf15c5", 
    "latitude": 40.7376202314048, 
    "locality": "New York", 
    "longitude": -73.9967735212674, 
    "name": "The Pink Tea Cup", 
    "phone": "(212) 206-0605", 
    "postal_code": "10011", 
    "region": "NY", 
    "street_address": "538 Ave. Of The Americas", 
    "website": "http://thinkpinkteacup.com"
  }, 
  {
    "country": "United States", 
    "id": "4c265b13db5195215f622c3a", 
    "latitude": 40.726631, 
    "locality": "New York", 
    "longitude": -73.989873, 
    "name": "VENUE #12: 4th Street Theatre", 
    "phone": null, 
    "postal_code": "10003", 
    "region": "NY", 
    "street_address": "83 East 4th St.", 
    "website": ""
  }, 
  {
    "country": "United States", 
    "id": "4ee52ed4b634710b8ba88657", 
    "latitude": 40.7638263662864, 
    "locality": "New York", 
    "longitude": -73.981576751425, 
    "name": "My Choice Frozen Yogurt", 
    "phone": "", 
    "postal_code": "10019", 
    "region": "NY", 
    "street_address": "841 7th Ave.", 
    "website": ""
  }, 
  {
    "country": "United States", 
    "id": "4f32c39119836c91c7f7f553", 
    "latitude": 40.777048, 
    "locality": "New York", 
    "longitude": -73.945738, 
    "name": "Patina Conservation and Rstrtn", 
    "phone": "(212) 772-0122", 
    "postal_code": "", 
    "region": "NY", 
    "street_address": "519 E. 88th St.", 
    "website": ""
  }, 
  {
    "country": "United States", 
    "id": "4cdef8f0f8cdb1f7bdad8e12", 
    "latitude": 40.730532445864, 
    "locality": "New York", 
    "longitude": -73.9828852819583, 
    "name": "Ichibantei", 
    "phone": "(877) 731-4339", 
    "postal_code": "10009", 
    "region": "NY", 
    "street_address": "401 E. 13th St.", 
    "website": ""
  }, 
  {
    "country": "United States", 
    "id": "4a6f5aeff964a520f7d51fe3", 
    "latitude": 40.755215, 
    "locality": "New York", 
    "longitude": -73.980984, 
    "name": "Jewel of India", 
    "phone": "(212) 869-5544", 
    "postal_code": "10036", 
    "region": "NY", 
    "street_address": "15 W. 44th St.", 
    "website": "http://jewelofindianyc.com"
  }, 
  {
    "country": "United States", 
    "id": "4a847491f964a520a7fc1fe3", 
    "latitude": 40.7537962, 
    "locality": "New York", 
    "longitude": -73.993397, 
    "name": "staghorn steakhouse", 
    "phone": "(212) 239-4390", 
    "postal_code": "10018", 
    "region": "NY", 
    "street_address": "315 W. 36th St.", 
    "website": "http://www.staghornsteakhouse.com"
  }, 
  {
    "country": "United States", 
    "id": "4d80eb2370d18cfa31a3a694", 
    "latitude": 40.7523455910658, 
    "locality": "New York", 
    "longitude": -73.9932269507877, 
    "name": "Famous Famiglia", 
    "phone": "(212) 564-4144", 
    "postal_code": "10001", 
    "region": "NY", 
    "street_address": "488 8th Ave.", 
    "website": ""
  }, 
  {
    "country": "United States", 
    "id": "51eb226c498e582b0eed4c2c", 
    "latitude": 40.7155799865723, 
    "locality": "New York", 
    "longitude": -73.9983596801758, 
    "name": "Yes Shangai Deluxe", 
    "phone": null, 
    "postal_code": "", 
    "region": "NY", 
    "street_address": "", 
    "website": ""
  }, 
  {
    "country": "United States", 
    "id": "4a3d766ff964a52051a21fe3", 
    "latitude": 40.7582610051923, 
    "locality": "New York", 
    "longitude": -73.9934105935882, 
    "name": "Theater Row", 
    "phone": null, 
    "postal_code": "10036", 
    "region": "NY", 
    "street_address": "410 West 42nd St.", 
    "website": ""
  }, 
  {
    "country": "United States", 
    "id": "4b4ce0d1f964a520b9c226e3", 
    "latitude": 40.7678155004396, 
    "locality": "New York", 
    "longitude": -73.9850489291221, 
    "name": "The Library at Hudson Hotel", 
    "phone": null, 
    "postal_code": "", 
    "region": "NY", 
    "street_address": "356 W. 58th St.", 
    "website": ""
  }, 
  {
    "country": "United States", 
    "id": "4f393c46e4b0e313d566d704", 
    "latitude": 40.7494206429113, 
    "locality": "New York", 
    "longitude": -73.9902369917053, 
    "name": "Starbucks - Penn Station (8th Avenue)", 
    "phone": null, 
    "postal_code": "10016", 
    "region": "NY", 
    "street_address": "", 
    "website": ""
  }, 
  {
    "country": "United States", 
    "id": "521bc93511d20de8dc0e9d21", 
    "latitude": 40.743788, 
    "locality": "New York", 
    "longitude": -73.990254, 
    "name": "Taste Good Chinese Food", 
    "phone": null, 
    "postal_code": "", 
    "region": "NY", 
    "street_address": "", 
    "website": ""
  }, 
  {
    "country": "United States", 
    "id": "4f32876619836c91c7e0ad6b", 
    "latitude": 40.765649, 
    "locality": "New York", 
    "longitude": -73.959173, 
    "name": "Pizza and Hot Dog King", 
    "phone": "(212) 288-9410", 
    "postal_code": "", 
    "region": "NY", 
    "street_address": "359 E. 68th St.", 
    "website": ""
  }, 
  {
    "country": "United States", 
    "id": "4d9e8aa89b91a1cdc7c958c0", 
    "latitude": 40.7276327725886, 
    "locality": "New York", 
    "longitude": -74.0015888214111, 
    "name": "Miss Lily's & Melvin's Juice Box", 
    "phone": "(646) 588-5375", 
    "postal_code": "10012", 
    "region": "NY", 
    "street_address": "132 W. Houston St.", 
    "website": "http://www.misslilysnyc.com"
  }, 
  {
    "country": "United States", 
    "id": "4e4e4c0fbd4101d0d7a71bd9", 
    "latitude": 40.719374, 
    "locality": "New York", 
    "longitude": -74.009496, 
    "name": "Mai House Vietnamese", 
    "phone": "(212) 431-0606", 
    "postal_code": "10013", 
    "region": "NY", 
    "street_address": "186 Franklin St.", 
    "website": ""
  }, 
  {
    "country": "United States", 
    "id": "4a84a19bf964a5202afd1fe3", 
    "latitude": 40.7463302542763, 
    "locality": "New York", 
    "longitude": -73.9778691998696, 
    "name": "Aji Sushi", 
    "phone": "(212) 686-2055", 
    "postal_code": "10016", 
    "region": "NY", 
    "street_address": "519 3rd Ave.", 
    "website": "http://www.ajisushiny.com"
  }, 
  {
    "country": "United States", 
    "id": "4f32133e19833175d60e0b67", 
    "latitude": 40.739396, 
    "locality": "New York", 
    "longitude": -74.002789, 
    "name": "Helen's Restaurant and Piano Lounge", 
    "phone": "(212) 206-0609", 
    "postal_code": "", 
    "region": "NY", 
    "street_address": "169 8th Ave.", 
    "website": ""
  }, 
  {
    "country": "United States", 
    "id": "5147a198e4b038d05d8a68ed", 
    "latitude": 40.846326, 
    "locality": "New York", 
    "longitude": -73.935952, 
    "name": "Cachapas Y Mas", 
    "phone": null, 
    "postal_code": "10033", 
    "region": "NY", 
    "street_address": "1329 St. Nicholas Ave.", 
    "website": ""
  }, 
  {
    "country": "United States", 
    "id": "4f3235f219836c91c7c1105c", 
    "latitude": 40.760321, 
    "locality": "New York", 
    "longitude": -73.965565, 
    "name": "Benny's Steak House", 
    "phone": "(212) 753-2200", 
    "postal_code": "", 
    "region": "NY", 
    "street_address": "242 E. 58th St.", 
    "website": ""
  }, 
  {
    "country": "United States", 
    "id": "4c0716c68b4520a1f7808697", 
    "latitude": 40.7298913028115, 
    "locality": "New York", 
    "longitude": -74.0040099282695, 
    "name": "Cho's Grocery", 
    "phone": "", 
    "postal_code": "10014", 
    "region": "NY", 
    "street_address": "58 Carmine St.", 
    "website": ""
  }, 
  {
    "country": "United States", 
    "id": "4e1499cec65bedaeefbeb7d3", 
    "latitude": 40.755795, 
    "locality": "New York", 
    "longitude": -73.993171, 
    "name": "Gail Watson Custom Cake", 
    "phone": null, 
    "postal_code": "10018", 
    "region": "NY", 
    "street_address": "335 W. 38th St., Apt 11", 
    "website": ""
  }, 
  {
    "country": "United States", 
    "id": "4f47a161e4b068e1ce89dfe1", 
    "latitude": 40.7256488951909, 
    "locality": "New York", 
    "longitude": -74.005343914032, 
    "name": "Breakfast Cart!", 
    "phone": null, 
    "postal_code": "10013", 
    "region": "NY", 
    "street_address": "Spring & Varick", 
    "website": ""
  }, 
  {
    "country": "United States", 
    "id": "51d7433c498edc487dbd6801", 
    "latitude": 40.744408, 
    "locality": "New York", 
    "longitude": -73.990604, 
    "name": "Flatiron Hall", 
    "phone": null, 
    "postal_code": "10010", 
    "region": "NY", 
    "street_address": "38 W. 26th St.", 
    "website": ""
  }, 
  {
    "country": "United States", 
    "id": "4b91bd5df964a520ead333e3", 
    "latitude": 40.7422989467137, 
    "locality": "Elmhurst", 
    "longitude": -73.872489946095, 
    "name": "Chopstick", 
    "phone": "", 
    "postal_code": "11373", 
    "region": "NY", 
    "street_address": "91-28 Corona Ave.", 
    "website": ""
  }, 
  {
    "country": "United States", 
    "id": "5131132de4b0bef17e4ef837", 
    "latitude": 40.7580358515362, 
    "locality": "New York", 
    "longitude": -73.985324404996, 
    "name": "Buca Di Beppo", 
    "phone": "", 
    "postal_code": "10036", 
    "region": "NY", 
    "street_address": "", 
    "website": ""
  }, 
  {
    "country": "United States", 
    "id": "51e5f4b0498eacd33087eb65", 
    "latitude": 40.799169, 
    "locality": "New York", 
    "longitude": -73.960244, 
    "name": "15 W 107th", 
    "phone": null, 
    "postal_code": "10025", 
    "region": "NY", 
    "street_address": "15 W. 107th St.", 
    "website": ""
  }, 
  {
    "country": "United States", 
    "id": "4f321bad19836c91c7b6ae9e", 
    "latitude": 40.7603, 
    "locality": "New York", 
    "longitude": -73.981598, 
    "name": "Y and B Enterprises", 
    "phone": "(212) 489-9090", 
    "postal_code": "", 
    "region": "NY", 
    "street_address": "135 W. 50th St.", 
    "website": "http://www.pranzonyc.com"
  }, 
  {
    "country": "United States", 
    "id": "4ffefd60e4b0b1fd7ae04b12", 
    "latitude": 40.7114930255893, 
    "locality": "New York", 
    "longitude": -74.0129388527038, 
    "name": "Bistro To Go on 48", 
    "phone": null, 
    "postal_code": "10007", 
    "region": "NY", 
    "street_address": "", 
    "website": ""
  }, 
  {
    "country": "United States", 
    "id": "4aafbe03f964a520996420e3", 
    "latitude": 40.736581377053, 
    "locality": "New York", 
    "longitude": -73.9890031178487, 
    "name": "Trevi Deli", 
    "phone": "(212) 473-4493", 
    "postal_code": "10003", 
    "region": "NY", 
    "street_address": "48 Union Sq. E.", 
    "website": ""
  }, 
  {
    "country": "United States", 
    "id": "519b78372fc6182159f7eb0d", 
    "latitude": 40.722542870003, 
    "locality": "New York", 
    "longitude": -73.9886069297791, 
    "name": "BRBG at the Thompson Hotel", 
    "phone": "(212) 460-5300", 
    "postal_code": "10002", 
    "region": "NY", 
    "street_address": "190 Allen St.", 
    "website": ""
  }, 
  {
    "country": "United States", 
    "id": "41366280f964a520ce1a1fe3", 
    "latitude": 40.747558, 
    "locality": "New York", 
    "longitude": -73.993104, 
    "name": "The Triple Crown Ale House & Restaurant", 
    "phone": "(212) 736-1575", 
    "postal_code": "10001", 
    "region": "NY", 
    "street_address": "330 7th Ave.", 
    "website": "http://www.triplecrownnyc.com"
  }, 
  {
    "country": "United States", 
    "id": "4dce0f2c45ddbe15f88064d2", 
    "latitude": 40.7903932873476, 
    "locality": "New York", 
    "longitude": -73.9474657332398, 
    "name": "Sofrito's Burgers", 
    "phone": null, 
    "postal_code": "10029", 
    "region": "NY", 
    "street_address": "1634 Lexington Ave.", 
    "website": ""
  }, 
  {
    "country": "United States", 
    "id": "4cf9cb9cc6cca35d97898232", 
    "latitude": 40.7548393383649, 
    "locality": "New York", 
    "longitude": -73.968668883263, 
    "name": "La Cava Wine Bar", 
    "phone": "(212) 223-1206", 
    "postal_code": "10022", 
    "region": "NY", 
    "street_address": "939 2nd Ave.", 
    "website": "http://www.lacavanyc.com"
  }, 
  {
    "country": "United States", 
    "id": "4dbceae34b222080d39eb570", 
    "latitude": 40.749413, 
    "locality": "New York", 
    "longitude": -73.995616, 
    "name": "Pete E's Pad", 
    "phone": null, 
    "postal_code": "10001", 
    "region": "NY", 
    "street_address": "393 8th Ave.", 
    "website": ""
  }, 
  {
    "country": "United States", 
    "id": "51c48a60498eccfe96a58e22", 
    "latitude": 40.77853434484, 
    "locality": "New York", 
    "longitude": -73.9804059533955, 
    "name": "Beard Papa", 
    "phone": null, 
    "postal_code": "", 
    "region": "NY", 
    "street_address": "", 
    "website": ""
  }, 
  {
    "country": "United States", 
    "id": "4a50e74cf964a5203db01fe3", 
    "latitude": 40.855193, 
    "locality": "New York", 
    "longitude": -73.937313, 
    "name": "Next Door", 
    "phone": "(212) 543-2111", 
    "postal_code": "10033", 
    "region": "NY", 
    "street_address": "813 W. 187th St.", 
    "website": ""
  }, 
  {
    "country": "United States", 
    "id": "4f443a2319836ed00192faaf", 
    "latitude": 40.738766, 
    "locality": "New York", 
    "longitude": -74.008891, 
    "name": "Simple Fare", 
    "phone": "(212) 691-4570", 
    "postal_code": "", 
    "region": "NY", 
    "street_address": "91 Horatio St.", 
    "website": ""
  }, 
  {
    "country": "United States", 
    "id": "4f14a975e4b067f672d76a69", 
    "latitude": 40.7668939970648, 
    "locality": "New York", 
    "longitude": -73.9862311769564, 
    "name": "Pompanda Express", 
    "phone": null, 
    "postal_code": "10019", 
    "region": "NY", 
    "street_address": "855 9th Ave.", 
    "website": ""
  }, 
  {
    "country": "United States", 
    "id": "4adca0ebf964a520182e21e3", 
    "latitude": 40.7373051953056, 
    "locality": "New York", 
    "longitude": -73.9812783133888, 
    "name": "Gramercy Food Market", 
    "phone": "(212) 777-2808", 
    "postal_code": "10010", 
    "region": "NY", 
    "street_address": "384 2nd Ave.", 
    "website": ""
  }, 
  {
    "country": "United States", 
    "id": "4e4c4fbfbd413c4cc66869d9", 
    "latitude": 40.7754018176491, 
    "locality": "New York", 
    "longitude": -73.9554846320046, 
    "name": "Tandoor Palace II", 
    "phone": "(212) 791-8981", 
    "postal_code": "10038", 
    "region": "NY", 
    "street_address": "141 Fulton St.", 
    "website": ""
  }, 
  {
    "country": "United States", 
    "id": "4d6a8a5d0a25b60cb4743290", 
    "latitude": 40.723321, 
    "locality": "New York", 
    "longitude": -73.982386, 
    "name": "The Best Bodega", 
    "phone": null, 
    "postal_code": "", 
    "region": "NY", 
    "street_address": "", 
    "website": ""
  }, 
  {
    "country": "United States", 
    "id": "51427b38e4b04e44ba254b03", 
    "latitude": 40.75359, 
    "locality": "New York", 
    "longitude": -73.967788, 
    "name": "Renee's Ragin' Romp Room", 
    "phone": null, 
    "postal_code": "10017", 
    "region": "NY", 
    "street_address": "333 E. 49th St.", 
    "website": ""
  }, 
  {
    "country": "United States", 
    "id": "51b7c578498e4e1541088105", 
    "latitude": 40.730573, 
    "locality": "New York", 
    "longitude": -73.992178, 
    "name": "Pretty Little Lair", 
    "phone": null, 
    "postal_code": "10003", 
    "region": "NY", 
    "street_address": "1 Astor Pl.", 
    "website": ""
  }, 
  {
    "country": "United States", 
    "id": "4ebd631a6da1d1ac287cc749", 
    "latitude": 40.7619659162068, 
    "locality": "New York", 
    "longitude": -73.9946100063033, 
    "name": "Halal Cart", 
    "phone": null, 
    "postal_code": "10036", 
    "region": "NY", 
    "street_address": "", 
    "website": ""
  }, 
  {
    "country": "United States", 
    "id": "4b9db9e8f964a52007bc36e3", 
    "latitude": 40.754099, 
    "locality": "New York", 
    "longitude": -73.82254, 
    "name": "Golden Palace Restaurant", 
    "phone": null, 
    "postal_code": "", 
    "region": "NY", 
    "street_address": "140-09 Cherry Ave.", 
    "website": ""
  }, 
  {
    "country": "United States", 
    "id": "4f820883e4b00084dbe9b57a", 
    "latitude": 40.758912, 
    "locality": "New York", 
    "longitude": -73.992072, 
    "name": "Starbucks (Manhattan Plaza)", 
    "phone": null, 
    "postal_code": "10036", 
    "region": "NY", 
    "street_address": "", 
    "website": ""
  }, 
  {
    "country": "United States", 
    "id": "4b4c863cf964a52026b526e3", 
    "latitude": 40.7259913037186, 
    "locality": "New York", 
    "longitude": -74.0013300219526, 
    "name": "Birdbath Neighborhood Green Bakery", 
    "phone": "", 
    "postal_code": "10012", 
    "region": "NY", 
    "street_address": "160 Prince St.", 
    "website": ""
  }, 
  {
    "country": "United States", 
    "id": "4f81f7d8e4b085b99c7a76ba", 
    "latitude": 40.7337656394872, 
    "locality": "New York", 
    "longitude": -73.9816284041149, 
    "name": "340 Lounge", 
    "phone": null, 
    "postal_code": "10003", 
    "region": "NY", 
    "street_address": "340 E. 18th St.", 
    "website": ""
  }, 
  {
    "country": "United States", 
    "id": "4da72c591e725f12297d579e", 
    "latitude": 40.7510966062546, 
    "locality": "New York", 
    "longitude": -73.9744287729263, 
    "name": "Maki Time", 
    "phone": "(212) 682-2795", 
    "postal_code": "10017", 
    "region": "NY", 
    "street_address": "142 East 43rd St.", 
    "website": ""
  }, 
  {
    "country": "United States", 
    "id": "4a5910c8f964a52094b81fe3", 
    "latitude": 40.769271, 
    "locality": "New York", 
    "longitude": -73.954948, 
    "name": "Rectangles", 
    "phone": "(212) 744-7470", 
    "postal_code": "10021", 
    "region": "NY", 
    "street_address": "1431 1st Ave.", 
    "website": ""
  }, 
  {
    "country": "United States", 
    "id": "50200e36e4b0e1f6fa03bd6c", 
    "latitude": 40.727792062145, 
    "locality": "New York", 
    "longitude": -73.9837748480658, 
    "name": "Exchange Alley", 
    "phone": "(212) 228-8525", 
    "postal_code": "10009", 
    "region": "NY", 
    "street_address": "424 E. 9th St.", 
    "website": "http://www.exchangealleynyc.com"
  }, 
  {
    "country": "United States", 
    "id": "4c6c4d00d68a9c740315686b", 
    "latitude": 40.784451, 
    "locality": "New York", 
    "longitude": -73.949078, 
    "name": "The Reservoir Tip", 
    "phone": null, 
    "postal_code": "10128", 
    "region": "NY", 
    "street_address": "215 E. 95th St.", 
    "website": ""
  }, 
  {
    "country": "United States", 
    "id": "4e50854ffa7626401eba771e", 
    "latitude": 40.726372529454, 
    "locality": "New York", 
    "longitude": -74.0056765079498, 
    "name": "Yohnny Walker's Birthday Week Extravaganza", 
    "phone": null, 
    "postal_code": "10013", 
    "region": "NY", 
    "street_address": "150 Varick St.", 
    "website": ""
  }, 
  {
    "country": "United States", 
    "id": "4fbd9bc0e4b09f409bd4fa94", 
    "latitude": 40.73309, 
    "locality": "New York", 
    "longitude": -73.99832, 
    "name": "Pink Elephant Club", 
    "phone": "(212) 777-1511", 
    "postal_code": "10011", 
    "region": "NY", 
    "street_address": "40 W. 8th St.", 
    "website": "http://pinkelephantclub.com/wordpress/"
  }, 
  {
    "country": "United States", 
    "id": "4be203d2660ec9282681c83b", 
    "latitude": 40.805612, 
    "locality": "New York", 
    "longitude": -73.940284, 
    "name": "Manna's Restaurant", 
    "phone": "(212) 360-4975", 
    "postal_code": "", 
    "region": "NY", 
    "street_address": "54 E.125th St.", 
    "website": "http://www.mannasrestaurants.com"
  }, 
  {
    "country": "United States", 
    "id": "51b22203498e3f512e7da871", 
    "latitude": 40.7459302118356, 
    "locality": "New York", 
    "longitude": -73.9846127581803, 
    "name": "La Colombe", 
    "phone": null, 
    "postal_code": "", 
    "region": "NY", 
    "street_address": "", 
    "website": ""
  }, 
  {
    "country": "United States", 
    "id": "519cbce9498ec3558fac65b6", 
    "latitude": 40.764621, 
    "locality": "822 Lexington Avenue", 
    "longitude": -73.966276, 
    "name": "Starbucks", 
    "phone": null, 
    "postal_code": "", 
    "region": "NY", 
    "street_address": "At 63rd St. And Lexington Ave.", 
    "website": ""
  }
]