[
  {
    "country": "United States", 
    "id": "b48da849c54f904013e2", 
    "latitude": 40.758005, 
    "locality": "New York", 
    "longitude": -73.992727, 
    "name": "Panda Restaurant", 
    "phone": "2126950836", 
    "postal_code": "10036", 
    "region": "NY", 
    "street_address": "570 9th Ave.", 
    "website": "http://pandarg.com/"
  }, 
  {
    "country": "United States", 
    "id": "95ad783fd1c65bb8fdbf", 
    "latitude": 40.721025, 
    "locality": "New York", 
    "longitude": -73.982903, 
    "name": "El Maguey y la Tuna", 
    "phone": "2124733919", 
    "postal_code": "10002", 
    "region": "NY", 
    "street_address": "321 East Houston St.", 
    "website": "http://www.elmagueyylatunamex.com"
  }, 
  {
    "country": "United States", 
    "id": "5060d123ccad77923b20", 
    "latitude": 40.725772, 
    "locality": "New York", 
    "longitude": -73.991947, 
    "name": "Hair Date Salon/ Professionals Hair Cut", 
    "phone": "2122288381", 
    "postal_code": "10003", 
    "region": "NY", 
    "street_address": "329 Bowery", 
    "website": "http://www.hairdatenyc.com/"
  }, 
  {
    "country": "United States", 
    "id": "9dd6f6b177096efd5da4", 
    "latitude": 40.802047, 
    "locality": "New York", 
    "longitude": -73.936988, 
    "name": "Pizza Plus Inc", 
    "phone": "2122890005", 
    "postal_code": "10035", 
    "region": "NY", 
    "street_address": "2253 3rd Ave. # 1", 
    "website": "http://www.pizzaplusmore.com/"
  }, 
  {
    "country": "United States", 
    "id": "4773c30d2df4368c0d09", 
    "latitude": 40.72519, 
    "locality": "New York", 
    "longitude": -73.992547, 
    "name": "Double Crown", 
    "phone": "2122540350", 
    "postal_code": "10012", 
    "region": "NY", 
    "street_address": "316 Bowery", 
    "website": "http://doublecrown-nyc.com"
  }, 
  {
    "country": "United States", 
    "id": "206c363a5907bfa98ec0", 
    "latitude": 40.737576, 
    "locality": "New York", 
    "longitude": -73.996471, 
    "name": "Pink Tea Cup", 
    "phone": "2122060605", 
    "postal_code": "10011", 
    "region": "NY", 
    "street_address": "538 6th Ave.", 
    "website": "http://www.thinkpinkteacup.com/"
  }, 
  {
    "country": "United States", 
    "id": "cb95d1e0730222cc3209", 
    "latitude": 40.7606851485475, 
    "locality": "New York", 
    "longitude": -73.9825696284785, 
    "name": "Roses Mexicano", 
    "phone": "", 
    "postal_code": "10022", 
    "region": "NY", 
    "street_address": "1st Ave.", 
    "website": ""
  }, 
  {
    "country": "United States", 
    "id": "ecdc736a7d663a46e01d", 
    "latitude": 40.7683704807803, 
    "locality": "New York", 
    "longitude": -73.9849162101746, 
    "name": "Hudson Common @ the Hudson", 
    "phone": "2125546217", 
    "postal_code": "10019", 
    "region": "NY", 
    "street_address": "356 W. 58th St.", 
    "website": "http://www.hudsonhotel.com/#/explor"
  }, 
  {
    "country": "United States", 
    "id": "25ca87e725b930488ed6", 
    "latitude": 40.755325, 
    "locality": "New York", 
    "longitude": -73.990906, 
    "name": "Starbucks", 
    "phone": "2129977341", 
    "postal_code": "10018", 
    "region": "NY", 
    "street_address": "600 Eighth Ave.", 
    "website": "http://www.starbucks.com/"
  }, 
  {
    "country": "United States", 
    "id": "4f9710321455164d1cb4", 
    "latitude": 40.7423667907715, 
    "locality": "New York", 
    "longitude": -74.0032043457031, 
    "name": "..nyc jaajjjj......:-D", 
    "phone": "", 
    "postal_code": "10011", 
    "region": "NY", 
    "street_address": "", 
    "website": ""
  }, 
  {
    "country": "United States", 
    "id": "daff4926a1d14a6c2921", 
    "latitude": 40.765683, 
    "locality": "New York", 
    "longitude": -73.976401, 
    "name": "Trump's World Tower Valet", 
    "phone": "2127591068", 
    "postal_code": "10019", 
    "region": "NY", 
    "street_address": "106 Central Park South", 
    "website": ""
  }, 
  {
    "country": "United States", 
    "id": "138aed748ccdfed0845d", 
    "latitude": 40.8038840783724, 
    "locality": "New York", 
    "longitude": -73.9558749492916, 
    "name": "283 W 115th St Corp.", 
    "phone": "2128651910", 
    "postal_code": "10026", 
    "region": "NY", 
    "street_address": "283 W. 115th St.", 
    "website": ""
  }, 
  {
    "country": "United States", 
    "id": "6a80339865339c7d4e52", 
    "latitude": 43.096596, 
    "locality": "New York", 
    "longitude": -76.381458, 
    "name": "Time Warner Inc", 
    "phone": "2124848000", 
    "postal_code": "10019", 
    "region": "NY", 
    "street_address": "1 Time Warner Ctr", 
    "website": "http://www.timewarner.com/"
  }, 
  {
    "country": "United States", 
    "id": "a16c8ddbcf2ea4d3ccad", 
    "latitude": 40.754922, 
    "locality": "New York", 
    "longitude": -73.989909, 
    "name": "Bernstein Textile", 
    "phone": "2123545213", 
    "postal_code": "10018", 
    "region": "NY", 
    "street_address": "270 W. 39th St. # 20", 
    "website": "http://www.berensteintextiles.com/"
  }, 
  {
    "country": "United States", 
    "id": "5013d96a9633f92f2dbf", 
    "latitude": 40.751522, 
    "locality": "New York", 
    "longitude": -73.980221, 
    "name": "Hopkins Foodservice Specialists", 
    "phone": "2126799293", 
    "postal_code": "", 
    "region": "NY", 
    "street_address": "280 Madison Ave.", 
    "website": ""
  }, 
  {
    "country": "United States", 
    "id": "b2affc7b53499fd8ee76", 
    "latitude": 40.761488, 
    "locality": "New York", 
    "longitude": -73.960607, 
    "name": "Dalga Seafood Grill", 
    "phone": "2128131790", 
    "postal_code": "10065", 
    "region": "NY", 
    "street_address": "401 E. 62nd St.", 
    "website": ""
  }, 
  {
    "country": "United States", 
    "id": "8c793887992c0f78bd27", 
    "latitude": 40.708277, 
    "locality": "New York", 
    "longitude": -74.00516, 
    "name": "Iron Horse Restaurant", 
    "phone": "6464484471", 
    "postal_code": "10038", 
    "region": "NY", 
    "street_address": "32 Cliff St.", 
    "website": "http://www.ironhorsenyc.com"
  }, 
  {
    "country": "United States", 
    "id": "8f922b60da3c4795c589", 
    "latitude": 40.66055, 
    "locality": "New York", 
    "longitude": -73.960699, 
    "name": "Jaquira Beauty Salon", 
    "phone": "7184624281", 
    "postal_code": "11225", 
    "region": "NY", 
    "street_address": "544 Flatbush Ave.", 
    "website": ""
  }, 
  {
    "country": "United States", 
    "id": "7b11cde179779d2e814d", 
    "latitude": 40.723321, 
    "locality": "New York", 
    "longitude": -73.982386, 
    "name": "The Best Bodega", 
    "phone": "", 
    "postal_code": "", 
    "region": "NY", 
    "street_address": "", 
    "website": ""
  }, 
  {
    "country": "United States", 
    "id": "1ff1b1c1d5252ca3682a", 
    "latitude": 40.748853, 
    "locality": "New York", 
    "longitude": -73.992386, 
    "name": "Harrington's Bar & Grill", 
    "phone": "2127363636", 
    "postal_code": "10001", 
    "region": "NY", 
    "street_address": "370 7th Ave.", 
    "website": "http://www.harringtonsbar.com/"
  }, 
  {
    "country": "United States", 
    "id": "f9f61ba2a57897a84b70", 
    "latitude": 43.262831, 
    "locality": "New York", 
    "longitude": -78.193128, 
    "name": "Lin Min Zhang Restaurant", 
    "phone": "7189978000", 
    "postal_code": "11375", 
    "region": "NY", 
    "street_address": "10119 Queens Blvd.", 
    "website": ""
  }, 
  {
    "country": "United States", 
    "id": "96bd550c35ac34818c9a", 
    "latitude": 40.717192, 
    "locality": "New York", 
    "longitude": -73.994777, 
    "name": "Lai Fan Beauty Center", 
    "phone": "2122191383", 
    "postal_code": "10002", 
    "region": "NY", 
    "street_address": "143 Hester St.", 
    "website": ""
  }, 
  {
    "country": "United States", 
    "id": "417df85b1156d93935b3", 
    "latitude": 40.7539305766955, 
    "locality": "New York", 
    "longitude": -73.9896516199811, 
    "name": "Tagine Dining Gallery", 
    "phone": "", 
    "postal_code": "10018", 
    "region": "NY", 
    "street_address": "221 W. 38th St.", 
    "website": ""
  }, 
  {
    "country": "United States", 
    "id": "be74338f204c673792a9", 
    "latitude": 40.722542870003, 
    "locality": "New York", 
    "longitude": -73.9886069297791, 
    "name": "BRBG at the Thompson Hotel", 
    "phone": "2124605300", 
    "postal_code": "10002", 
    "region": "NY", 
    "street_address": "190 Allen St.", 
    "website": "http://www.thompsonhotels.com/hotels/nyc/thompson-les"
  }, 
  {
    "country": "United States", 
    "id": "76b75b0a67c0bcd6682f", 
    "latitude": 40.749101, 
    "locality": "New York", 
    "longitude": -73.992006, 
    "name": "Gold Group of Atlanta", 
    "phone": "2125947817", 
    "postal_code": "", 
    "region": "NY", 
    "street_address": "1 Penn Plz.", 
    "website": ""
  }, 
  {
    "country": "United States", 
    "id": "0b349f0d5401a0e1d58e", 
    "latitude": 40.751516, 
    "locality": "New York", 
    "longitude": -73.98159, 
    "name": "40 st coffee stand", 
    "phone": "", 
    "postal_code": "10016", 
    "region": "NY", 
    "street_address": "60 Worth St.", 
    "website": ""
  }, 
  {
    "country": "United States", 
    "id": "d837156a7175ece3df6e", 
    "latitude": 40.826815, 
    "locality": "New York", 
    "longitude": -73.946587, 
    "name": "Naty Unisex", 
    "phone": "", 
    "postal_code": "10031", 
    "region": "NY", 
    "street_address": "1766 Amsterdam Ave. # 1", 
    "website": ""
  }, 
  {
    "country": "United States", 
    "id": "10d0e40eca8098beb6fa", 
    "latitude": 40.761512, 
    "locality": "New York", 
    "longitude": -73.98426, 
    "name": "Harmony View Bar", 
    "phone": "2129575100", 
    "postal_code": "10019", 
    "region": "NY", 
    "street_address": "210 W. 50th St.", 
    "website": ""
  }, 
  {
    "country": "United States", 
    "id": "b1e54c079d60ec3745bd", 
    "latitude": 40.742942, 
    "locality": "New York", 
    "longitude": -73.982076, 
    "name": "Whiskey Rebel", 
    "phone": "2126863800", 
    "postal_code": "10016", 
    "region": "NY", 
    "street_address": "129 Lexington Ave.", 
    "website": "http://whiskeyrebelnyc.com/"
  }, 
  {
    "country": "United States", 
    "id": "86421a8058103fd73842", 
    "latitude": 40.76417, 
    "locality": "New York", 
    "longitude": -73.984734, 
    "name": "Avanti Nail & Spa", 
    "phone": "2127571269", 
    "postal_code": "10019", 
    "region": "NY", 
    "street_address": "888 8th Ave. # 6", 
    "website": "http://www.avantinailsandspa.com/"
  }, 
  {
    "country": "United States", 
    "id": "164018ffb61e68f74516", 
    "latitude": 40.73108, 
    "locality": "New York", 
    "longitude": -73.991752, 
    "name": "Resturant Business", 
    "phone": "6466547206", 
    "postal_code": "10003", 
    "region": "NY", 
    "street_address": "770 Broadway", 
    "website": "http://www.supermarketbusiness.com"
  }, 
  {
    "country": "United States", 
    "id": "2f880aab53e06d7320ab", 
    "latitude": 40.7251447857735, 
    "locality": "New York", 
    "longitude": -73.9977693557739, 
    "name": "Jan Frank", 
    "phone": "2129821298", 
    "postal_code": "10012", 
    "region": "NY", 
    "street_address": "Bond St. Re", 
    "website": ""
  }, 
  {
    "country": "United States", 
    "id": "d09f4e176ebd1cdb57bf", 
    "latitude": 40.7370150358462, 
    "locality": "New York", 
    "longitude": -73.9959930518415, 
    "name": "Golden Crust 14th St", 
    "phone": "", 
    "postal_code": "10011", 
    "region": "NY", 
    "street_address": "6th Ave.", 
    "website": ""
  }, 
  {
    "country": "United States", 
    "id": "9b150e3bb117e0011b77", 
    "latitude": 40.762228, 
    "locality": "New York", 
    "longitude": -73.986567, 
    "name": "Starbucks", 
    "phone": "2123071421", 
    "postal_code": "10019", 
    "region": "NY", 
    "street_address": "825 Eighth Ave.", 
    "website": "http://www.starbucks.com/"
  }, 
  {
    "country": "United States", 
    "id": "be09c05ea69bd534bc15", 
    "latitude": 40.7308264757037, 
    "locality": "New York", 
    "longitude": -73.9830172823506, 
    "name": "The Delancey", 
    "phone": "2122549920", 
    "postal_code": "10002", 
    "region": "NY", 
    "street_address": "168 Delancey St.", 
    "website": "http://www.thedelancey.com"
  }, 
  {
    "country": "United States", 
    "id": "e98fd3c4bb3028038942", 
    "latitude": 40.864364, 
    "locality": "New York", 
    "longitude": -73.923512, 
    "name": "Venus Beauty Salon", 
    "phone": "2125676501", 
    "postal_code": "10034", 
    "region": "NY", 
    "street_address": "597 Academy St.", 
    "website": ""
  }, 
  {
    "country": "United States", 
    "id": "755b5b231b7a4a913d33", 
    "latitude": 40.777866, 
    "locality": "New York", 
    "longitude": -73.979461, 
    "name": "AEK Restaurant Consulting", 
    "phone": "9178603952", 
    "postal_code": "10023", 
    "region": "NY", 
    "street_address": "133 West 72nd St.", 
    "website": "http://www.aekrestaurantconsulting.com/"
  }, 
  {
    "country": "United States", 
    "id": "59375826b6e0bd150de4", 
    "latitude": 40.716816, 
    "locality": "New York", 
    "longitude": -74.008647, 
    "name": "Duane Park Restaurant & Lounge", 
    "phone": "2127325555", 
    "postal_code": "10013", 
    "region": "NY", 
    "street_address": "157 Duane St.", 
    "website": "http://www.duaneparknyc.com"
  }, 
  {
    "country": "United States", 
    "id": "ea3614967a8fefa01210", 
    "latitude": 40.755795, 
    "locality": "New York", 
    "longitude": -73.993171, 
    "name": "Gail Watson Custom Cake", 
    "phone": "2129679167", 
    "postal_code": "10018", 
    "region": "NY", 
    "street_address": "335 W. 38th St., Apt 11", 
    "website": "http://www.gailwatsoncake.com/"
  }, 
  {
    "country": "United States", 
    "id": "9d069aa958451e4fe482", 
    "latitude": 40.7144234258363, 
    "locality": "New York", 
    "longitude": -74.0068888664246, 
    "name": "Hummus & Pitas co. (Tribeca)", 
    "phone": "2125716700", 
    "postal_code": "10007", 
    "region": "NY", 
    "street_address": "79 Chambers St.", 
    "website": ""
  }, 
  {
    "country": "United States", 
    "id": "b060e6d667f02872506e", 
    "latitude": 40.746298, 
    "locality": "New York", 
    "longitude": -73.979383, 
    "name": "Lady Day Wigs", 
    "phone": "2124942014", 
    "postal_code": "10001", 
    "region": "NY", 
    "street_address": "151 West 34th St.", 
    "website": "http://www.ladydaywigs.com/"
  }, 
  {
    "country": "United States", 
    "id": "b123e34c69602d2aa748", 
    "latitude": 40.756042, 
    "locality": "New York", 
    "longitude": -73.991542, 
    "name": "Big Mama Sushi", 
    "phone": "2126954080", 
    "postal_code": "10018", 
    "region": "NY", 
    "street_address": "306 West 40th St.", 
    "website": ""
  }, 
  {
    "country": "United States", 
    "id": "75512c0e130b174b1e02", 
    "latitude": 40.791264, 
    "locality": "New York", 
    "longitude": -73.972558, 
    "name": "New York Wash", 
    "phone": "2128742791", 
    "postal_code": "10025", 
    "region": "NY", 
    "street_address": "648 Amsterdam Ave.", 
    "website": ""
  }, 
  {
    "country": "United States", 
    "id": "22eb3ac25c299c710519", 
    "latitude": 40.755236, 
    "locality": "New York", 
    "longitude": -73.965268, 
    "name": "DNY Hair Salon", 
    "phone": "2126887770", 
    "postal_code": "10022", 
    "region": "NY", 
    "street_address": "947 1st Ave. # A", 
    "website": "http://dnysalon.com/"
  }, 
  {
    "country": "United States", 
    "id": "b01d81fb2b9f229da96e", 
    "latitude": 40.7451515197754, 
    "locality": "New York", 
    "longitude": -73.9754943847656, 
    "name": "french restaurants", 
    "phone": "", 
    "postal_code": "10003", 
    "region": "NY", 
    "street_address": "34 2nd Ave., New York, Ny 10003", 
    "website": ""
  }, 
  {
    "country": "United States", 
    "id": "e055d9834a4f55047d74", 
    "latitude": 40.742352, 
    "locality": "New York", 
    "longitude": -73.87254, 
    "name": "Chopstick Asian Cuisine", 
    "phone": "7186990866", 
    "postal_code": "11373", 
    "region": "NY", 
    "street_address": "91-28 Corona Ave.", 
    "website": "http://www.chopstickasiancuisine.com/"
  }, 
  {
    "country": "United States", 
    "id": "0809ec0c42befd4c2343", 
    "latitude": 40.7674, 
    "locality": "New York", 
    "longitude": -73.982379, 
    "name": "Art Beauty Salon", 
    "phone": "2124917471", 
    "postal_code": "10039", 
    "region": "NY", 
    "street_address": "3733 8th Ave.", 
    "website": ""
  }, 
  {
    "country": "United States", 
    "id": "56008f56920ca3e8fc18", 
    "latitude": 40.85923, 
    "locality": "New York", 
    "longitude": -73.931301, 
    "name": "Yeshi Rug Restoration & Cleaning", 
    "phone": "9178637669", 
    "postal_code": "10003", 
    "region": "NY", 
    "street_address": "3 Hillside Ave.", 
    "website": "http://www.yeshirugrepair.com/"
  }, 
  {
    "country": "United States", 
    "id": "9bb1cefd881db5274a53", 
    "latitude": 40.778182, 
    "locality": "New York", 
    "longitude": -73.948422, 
    "name": "Nailscure Inc", 
    "phone": "2127225050", 
    "postal_code": "10128", 
    "region": "NY", 
    "street_address": "1701 1st Ave.", 
    "website": "http://www.nailscure.com/"
  }, 
  {
    "country": "United States", 
    "id": "469fb2c083a6698e151b", 
    "latitude": 40.726631, 
    "locality": "New York", 
    "longitude": -73.989873, 
    "name": "VENUE #12: 4th Street Theatre", 
    "phone": "", 
    "postal_code": "10003", 
    "region": "NY", 
    "street_address": "83 East 4th St.", 
    "website": ""
  }, 
  {
    "country": "United States", 
    "id": "e6699064410879503ab1", 
    "latitude": 40.726159, 
    "locality": "New York", 
    "longitude": -73.991429, 
    "name": "Save The Sound by Auduban Society at The Bowery Hotel", 
    "phone": "", 
    "postal_code": "10003", 
    "region": "NY", 
    "street_address": "", 
    "website": ""
  }, 
  {
    "country": "United States", 
    "id": "f0e74a7a3902215e2343", 
    "latitude": 40.7441619407898, 
    "locality": "New York", 
    "longitude": -73.9743337590546, 
    "name": "Club DJMumbai", 
    "phone": "", 
    "postal_code": "10016", 
    "region": "NY", 
    "street_address": "340 E. 34th St.", 
    "website": ""
  }, 
  {
    "country": "United States", 
    "id": "33b302d42698f44edfa6", 
    "latitude": 40.74038, 
    "locality": "New York", 
    "longitude": -74.00816, 
    "name": "Adolph Reiner Meat Co", 
    "phone": "2126757584", 
    "postal_code": "", 
    "region": "NY", 
    "street_address": "48 Little West 12th St.", 
    "website": ""
  }, 
  {
    "country": "United States", 
    "id": "8e36487a20740b6fd0c5", 
    "latitude": 40.711084, 
    "locality": "New York", 
    "longitude": -74.015649, 
    "name": "Au Bon Pain", 
    "phone": "2129629421", 
    "postal_code": "10281", 
    "region": "NY", 
    "street_address": "1 Belford/harbor Way - World Financial Center", 
    "website": "http://www.aubonpain.com/"
  }, 
  {
    "country": "United States", 
    "id": "38a62925667755353728", 
    "latitude": 40.733677, 
    "locality": "New York", 
    "longitude": -74.006126, 
    "name": "Starbucks", 
    "phone": "6464860524", 
    "postal_code": "10014", 
    "region": "NY", 
    "street_address": "518 Hudson St.", 
    "website": "http://www.starbucks.com/"
  }, 
  {
    "country": "United States", 
    "id": "e8a1b9278538bf68d931", 
    "latitude": 40.800436, 
    "locality": "New York", 
    "longitude": -73.965711, 
    "name": "Celeste's Beauty Salon", 
    "phone": "2128656040", 
    "postal_code": "10025", 
    "region": "NY", 
    "street_address": "201 West 106th St.", 
    "website": ""
  }, 
  {
    "country": "United States", 
    "id": "c6f7f3dad980f2360ac3", 
    "latitude": 40.7373051953056, 
    "locality": "New York", 
    "longitude": -73.9812783133888, 
    "name": "Gramercy Food Market", 
    "phone": "2127772808", 
    "postal_code": "10010", 
    "region": "NY", 
    "street_address": "384 2nd Ave.", 
    "website": ""
  }, 
  {
    "country": "United States", 
    "id": "ca9365e3c0ee261c143c", 
    "latitude": 40.753139, 
    "locality": "New York", 
    "longitude": -73.966843, 
    "name": "Wylies Restaurant", 
    "phone": "2127510226", 
    "postal_code": "10022", 
    "region": "NY", 
    "street_address": "891 1st Ave.", 
    "website": ""
  }, 
  {
    "country": "United States", 
    "id": "ce859131110a1539b852", 
    "latitude": 40.794374, 
    "locality": "New York", 
    "longitude": -73.971976, 
    "name": "Global Copy", 
    "phone": "2122222679", 
    "postal_code": "10025", 
    "region": "NY", 
    "street_address": "2578 Broadway", 
    "website": "http://www.globalcopyny.com/"
  }, 
  {
    "country": "United States", 
    "id": "8dfd9cbf7aee888f9473", 
    "latitude": 40.7302881865375, 
    "locality": "New York", 
    "longitude": -73.9802452550701, 
    "name": "Charlie's Den", 
    "phone": "2126300342", 
    "postal_code": "10009", 
    "region": "NY", 
    "street_address": "1 Penn Plz.", 
    "website": ""
  }, 
  {
    "country": "United States", 
    "id": "797cd16d28d4e33a257b", 
    "latitude": 40.792902, 
    "locality": "New York", 
    "longitude": -73.973182, 
    "name": "Rhodes Laundromat-Dry Cleaners", 
    "phone": "7187263954", 
    "postal_code": "11106", 
    "region": "NY", 
    "street_address": "2523 Broadway", 
    "website": ""
  }, 
  {
    "country": "United States", 
    "id": "a538409ca1e6c99f71b6", 
    "latitude": 40.73297, 
    "locality": "New York", 
    "longitude": -73.991271, 
    "name": "Book Xchange", 
    "phone": "2127772665", 
    "postal_code": "10003", 
    "region": "NY", 
    "street_address": "813 Broadway", 
    "website": "http://www.bookxchange.com/"
  }, 
  {
    "country": "United States", 
    "id": "99b59e896dd72ba7ee06", 
    "latitude": 40.726372529454, 
    "locality": "New York", 
    "longitude": -74.0056765079498, 
    "name": "Yohnny Walker's Birthday Week Extravaganza", 
    "phone": "", 
    "postal_code": "10013", 
    "region": "NY", 
    "street_address": "150 Varick St.", 
    "website": ""
  }, 
  {
    "country": "United States", 
    "id": "89bd0b422af8cafb8a4a", 
    "latitude": 40.818404, 
    "locality": "New York", 
    "longitude": -73.952788, 
    "name": "La Palma Restaurant", 
    "phone": "2122831149", 
    "postal_code": "10031", 
    "region": "NY", 
    "street_address": "1502 Amsterdam Ave.", 
    "website": ""
  }, 
  {
    "country": "United States", 
    "id": "97b68d6c63ffe57c93ee", 
    "latitude": 40.7554424535776, 
    "locality": "New York", 
    "longitude": -73.9682097168303, 
    "name": "La Pasta Presto", 
    "phone": "2127544880", 
    "postal_code": "10022", 
    "region": "NY", 
    "street_address": "959 2nd Ave.", 
    "website": "http://www.prestopasta.com/history.html"
  }, 
  {
    "country": "United States", 
    "id": "fef0fc4c42101c066022", 
    "latitude": 40.721754, 
    "locality": "New York", 
    "longitude": -73.988357, 
    "name": "Tut's", 
    "phone": "2129617507", 
    "postal_code": "10002", 
    "region": "NY", 
    "street_address": "196 Orchard St.", 
    "website": "http://www.tutsny.com"
  }, 
  {
    "country": "United States", 
    "id": "d0f773a935c887f4af00", 
    "latitude": 40.688471, 
    "locality": "New York", 
    "longitude": -73.849275, 
    "name": "Divas Hair Salon", 
    "phone": "7186199737", 
    "postal_code": "11421", 
    "region": "NY", 
    "street_address": "93-10 Woodhaven Blvd.", 
    "website": ""
  }, 
  {
    "country": "United States", 
    "id": "1e039bdaeaa50058200c", 
    "latitude": 40.747672, 
    "locality": "New York", 
    "longitude": -73.985171, 
    "name": "Maui Tacos", 
    "phone": "2128689722", 
    "postal_code": "10001", 
    "region": "NY", 
    "street_address": "330 5th Ave.", 
    "website": "http://mauitacos.com/"
  }, 
  {
    "country": "United States", 
    "id": "a73eac5573629377e0e5", 
    "latitude": 40.706006, 
    "locality": "New York", 
    "longitude": -74.004161, 
    "name": "Trading Post NYC", 
    "phone": "6463703337", 
    "postal_code": "10038", 
    "region": "NY", 
    "street_address": "170 John St.", 
    "website": "http://www.tradingpostnyc.com/"
  }, 
  {
    "country": "United States", 
    "id": "dfc66624dd0e5608e395", 
    "latitude": 40.724421, 
    "locality": "New York", 
    "longitude": -73.980194, 
    "name": "Madison Square Club", 
    "phone": "2126831836", 
    "postal_code": "10010", 
    "region": "NY", 
    "street_address": "210 5th Ave. 7th Floor", 
    "website": "http://davidkirschwellness.com/"
  }, 
  {
    "country": "United States", 
    "id": "36d3ed39d34e7bc96a9d", 
    "latitude": 40.730777, 
    "locality": "New York", 
    "longitude": -73.995461, 
    "name": "Space Market", 
    "phone": "2126770044", 
    "postal_code": "10003", 
    "region": "NY", 
    "street_address": "1 University Pl.", 
    "website": "http://spacemarketnyc.com"
  }, 
  {
    "country": "United States", 
    "id": "58a4d57d1116a87d2ed9", 
    "latitude": 40.714277, 
    "locality": "New York", 
    "longitude": -73.998811, 
    "name": "Wo Hop", 
    "phone": "2129628617", 
    "postal_code": "10013", 
    "region": "NY", 
    "street_address": "17 Mott St.", 
    "website": "http://www.wohopnyc.com"
  }, 
  {
    "country": "United States", 
    "id": "1c5aef8c4c24e7301010", 
    "latitude": 40.717092, 
    "locality": "New York", 
    "longitude": -73.99002, 
    "name": "Subway", 
    "phone": "2127772372", 
    "postal_code": "10002", 
    "region": "NY", 
    "street_address": "334 Grand St.", 
    "website": "http://www.subway.com/storelocator/default.aspx?zip=10002"
  }, 
  {
    "country": "United States", 
    "id": "f89624bb1b38ddd5496e", 
    "latitude": 40.760321, 
    "locality": "New York", 
    "longitude": -73.965565, 
    "name": "Benny's Steak House", 
    "phone": "2127532200", 
    "postal_code": "", 
    "region": "NY", 
    "street_address": "242 E. 58th St.", 
    "website": ""
  }, 
  {
    "country": "United States", 
    "id": "1d3f6989798d90d33ef0", 
    "latitude": 40.777048, 
    "locality": "New York", 
    "longitude": -73.945738, 
    "name": "Patina Conservation and Rstrtn", 
    "phone": "2127720122", 
    "postal_code": "", 
    "region": "NY", 
    "street_address": "519 E. 88th St.", 
    "website": ""
  }, 
  {
    "country": "United States", 
    "id": "20b35a8ecda30f2fe77a", 
    "latitude": 40.748018, 
    "locality": "New York", 
    "longitude": -73.987402, 
    "name": "Korea Spoon", 
    "phone": "2125609696", 
    "postal_code": "10001", 
    "region": "NY", 
    "street_address": "39 West 32nd St.", 
    "website": "https://www.facebook.com/pages/Korea-Spoon/140353689427954"
  }, 
  {
    "country": "United States", 
    "id": "dd0329d29373e2945a41", 
    "latitude": 40.752791, 
    "locality": "New York", 
    "longitude": -73.994888, 
    "name": "Au Bon Pain", 
    "phone": "2129675276", 
    "postal_code": "10001", 
    "region": "NY", 
    "street_address": "34th St. Penn Sta", 
    "website": "http://www.aubonpain.com/"
  }, 
  {
    "country": "United States", 
    "id": "0e6346719e298935dd73", 
    "latitude": 40.744541, 
    "locality": "New York", 
    "longitude": -74.002924, 
    "name": "9th Avenue Express Cleaners", 
    "phone": "2129899020", 
    "postal_code": "10011", 
    "region": "NY", 
    "street_address": "165 9th Ave. # 19-20", 
    "website": ""
  }, 
  {
    "country": "United States", 
    "id": "4d7990aa173bbe842ba2", 
    "latitude": 40.763807, 
    "locality": "New York", 
    "longitude": -73.975328, 
    "name": "Studio 57 Skin & Body Care Spa", 
    "phone": "2127586383", 
    "postal_code": "10019", 
    "region": "NY", 
    "street_address": "57 W. 57th St. # 710", 
    "website": "http://www.studio57spa.com/"
  }, 
  {
    "country": "United States", 
    "id": "8c900bbaef0dff4e60e5", 
    "latitude": 40.780628, 
    "locality": "New York", 
    "longitude": -73.956416, 
    "name": "Passport To Ny Restaurants", 
    "phone": "2127723942", 
    "postal_code": "10128", 
    "region": "NY", 
    "street_address": "110 East 87th St.", 
    "website": ""
  }, 
  {
    "country": "United States", 
    "id": "d9794317d3647e5cc182", 
    "latitude": 40.756719, 
    "locality": "New York", 
    "longitude": -73.998017, 
    "name": "505W37", 
    "phone": "8775053737", 
    "postal_code": "10018", 
    "region": "NY", 
    "street_address": "505 West 37th St.", 
    "website": "http://www.505w37.com/"
  }, 
  {
    "country": "United States", 
    "id": "f294e371a5ec31e3b4d1", 
    "latitude": 40.7494206429113, 
    "locality": "New York", 
    "longitude": -73.9902369917053, 
    "name": "Starbucks - Penn Station (8th Avenue)", 
    "phone": "", 
    "postal_code": "10016", 
    "region": "NY", 
    "street_address": "", 
    "website": ""
  }, 
  {
    "country": "United States", 
    "id": "f9d7d110eed136cedc16", 
    "latitude": 40.754099, 
    "locality": "New York", 
    "longitude": -73.82254, 
    "name": "Golden Palace Restaurant", 
    "phone": "", 
    "postal_code": "", 
    "region": "NY", 
    "street_address": "140-09 Cherry Ave.", 
    "website": ""
  }, 
  {
    "country": "United States", 
    "id": "e036620e996a2065a229", 
    "latitude": 40.7580984130964, 
    "locality": "New York", 
    "longitude": -73.9730423886636, 
    "name": "Valduccci's Pizza Truck", 
    "phone": "", 
    "postal_code": "10154", 
    "region": "NY", 
    "street_address": "Moving Target", 
    "website": ""
  }, 
  {
    "country": "United States", 
    "id": "fed1dda05080832e55bf", 
    "latitude": 40.806416, 
    "locality": "New York", 
    "longitude": -73.942262, 
    "name": "Vietrade New York", 
    "phone": "2128682688", 
    "postal_code": "10017", 
    "region": "NY", 
    "street_address": "545 5th Ave. # 1109", 
    "website": "http://www.vietnam-ustrade.org/index.php?f=news&do=categories&catid=17&lang=english"
  }, 
  {
    "country": "United States", 
    "id": "62b24f96cfd688427793", 
    "latitude": 40.76045, 
    "locality": "New York", 
    "longitude": -73.995531, 
    "name": "Happy Family Chinese Restaurant", 
    "phone": "2126956035", 
    "postal_code": "10036", 
    "region": "NY", 
    "street_address": "500 West 43rd St.", 
    "website": "http://www.happyfamilychinese.com/"
  }, 
  {
    "country": "United States", 
    "id": "839f7fdc3e962784bdd9", 
    "latitude": 40.759875, 
    "locality": "New York", 
    "longitude": -73.993683, 
    "name": "Iowa Sports Management", 
    "phone": "2126951337", 
    "postal_code": "10036", 
    "region": "NY", 
    "street_address": "456 West 43rd St.", 
    "website": "http://iowasportsnyc.com/"
  }, 
  {
    "country": "United States", 
    "id": "f9f002a3fd3bea6c2a7d", 
    "latitude": 40.749735, 
    "locality": "New York", 
    "longitude": -73.978164, 
    "name": "THE ST GILES HOTEL NEW YORK \u2013 THE TUSCANY", 
    "phone": "2126861600", 
    "postal_code": "10016", 
    "region": "NY", 
    "street_address": "130 East 39th St.", 
    "website": "http://stgilesnewyork.com/"
  }, 
  {
    "country": "United States", 
    "id": "56b05a68fe02d40c3ae8", 
    "latitude": 40.726974, 
    "locality": "New York", 
    "longitude": -73.999996, 
    "name": "Allora S P A", 
    "phone": "2124778337", 
    "postal_code": "", 
    "region": "NY", 
    "street_address": "90 W. Houston St.", 
    "website": ""
  }, 
  {
    "country": "United States", 
    "id": "f2a8ae1ac18283a9930c", 
    "latitude": 40.7338775189173, 
    "locality": "New York", 
    "longitude": -73.9881250539473, 
    "name": "Raymour & Flanigan Furniture | 14th Street", 
    "phone": "6466520372", 
    "postal_code": "10003", 
    "region": "NY", 
    "street_address": "133 E. 14th St.", 
    "website": "http://www.raymourflanigan.com"
  }, 
  {
    "country": "United States", 
    "id": "e89044fc0d4a71ed176b", 
    "latitude": 40.7903932873476, 
    "locality": "New York", 
    "longitude": -73.9474657332398, 
    "name": "Sofrito's Burgers", 
    "phone": "", 
    "postal_code": "10029", 
    "region": "NY", 
    "street_address": "1634 Lexington Ave.", 
    "website": ""
  }, 
  {
    "country": "United States", 
    "id": "a3a807565c56fca3ccf4", 
    "latitude": 40.763444, 
    "locality": "New York", 
    "longitude": -73.975062, 
    "name": "Oosaka", 
    "phone": "2123555411", 
    "postal_code": "10019", 
    "region": "NY", 
    "street_address": "35 W. 57th St.", 
    "website": "http://oosakanyc.com"
  }, 
  {
    "country": "United States", 
    "id": "c4f2d081e8fb1cd1bc05", 
    "latitude": 40.761789, 
    "locality": "New York", 
    "longitude": -73.957441, 
    "name": "Wenzhoufamous Hair Salon", 
    "phone": "7188036483", 
    "postal_code": "11377", 
    "region": "NY", 
    "street_address": "3910 64th St.", 
    "website": ""
  }, 
  {
    "country": "United States", 
    "id": "4d8a6739a92a13852e3b", 
    "latitude": 40.749807, 
    "locality": "New York", 
    "longitude": -73.977373, 
    "name": "La Brochette Kosher Steakhouse", 
    "phone": "2129722200", 
    "postal_code": "10016", 
    "region": "NY", 
    "street_address": "340 Lexington Ave.", 
    "website": "http://www.labrochetteny.com"
  }, 
  {
    "country": "United States", 
    "id": "bed832291e2709d3c623", 
    "latitude": 40.74169, 
    "locality": "New York", 
    "longitude": -74.00139, 
    "name": "Paradise Cafe", 
    "phone": "2126470066", 
    "postal_code": "10011", 
    "region": "NY", 
    "street_address": "139 8th Ave.", 
    "website": "http://paradisecafenyc.com"
  }, 
  {
    "country": "United States", 
    "id": "ec8e73eb348f860a213b", 
    "latitude": 40.7299270629883, 
    "locality": "New York", 
    "longitude": -73.9833908081055, 
    "name": "11th and 1st Halal Cart", 
    "phone": "", 
    "postal_code": "", 
    "region": "NY", 
    "street_address": "", 
    "website": ""
  }, 
  {
    "country": "United States", 
    "id": "9b45147fa16f908fb5c9", 
    "latitude": 40.765042, 
    "locality": "New York", 
    "longitude": -73.987796, 
    "name": "Subway", 
    "phone": "2122450086", 
    "postal_code": "10019", 
    "region": "NY", 
    "street_address": "790 9th Ave.", 
    "website": "http://www.subway.com/"
  }, 
  {
    "country": "United States", 
    "id": "f1c4c5b28d014b8590d4", 
    "latitude": 40.722734, 
    "locality": "New York", 
    "longitude": -73.999159, 
    "name": "Sacco Carpet Corporation", 
    "phone": "2122264344", 
    "postal_code": "10012", 
    "region": "NY", 
    "street_address": "520 Broadway # 6", 
    "website": "http://www.saccocarpet.com/"
  }, 
  {
    "country": "United States", 
    "id": "b6bb9e50ad4e5b5509ff", 
    "latitude": 40.716575, 
    "locality": "New York", 
    "longitude": -73.997237, 
    "name": "Facial Spa", 
    "phone": "2129255114", 
    "postal_code": "10013", 
    "region": "NY", 
    "street_address": "172 Canal St.", 
    "website": "http://www.myfacialspa.com/"
  }, 
  {
    "country": "United States", 
    "id": "a7b51512e1c8370122b2", 
    "latitude": 40.792127, 
    "locality": "New York", 
    "longitude": -73.971772, 
    "name": "Apple NYC Day Spa", 
    "phone": "2122802656", 
    "postal_code": "10025", 
    "region": "NY", 
    "street_address": "677 Amsterdam Ave.", 
    "website": "http://applenycspa.com/contacts.html"
  }, 
  {
    "country": "United States", 
    "id": "81f6659b3a5ec3ecda82", 
    "latitude": 40.7273238119638, 
    "locality": "New York", 
    "longitude": -74.0018033981323, 
    "name": "Joe's Dairy", 
    "phone": "2126778780", 
    "postal_code": "10012", 
    "region": "NY", 
    "street_address": "156 Sullivan St., Frnt A", 
    "website": ""
  }, 
  {
    "country": "United States", 
    "id": "64841252d8b5db743c77", 
    "latitude": 40.733047, 
    "locality": "New York", 
    "longitude": -73.998427, 
    "name": "Curry Kitchen", 
    "phone": "2129822900", 
    "postal_code": "10011", 
    "region": "NY", 
    "street_address": "40 West 8th St.", 
    "website": "http://www.currykitchen.net/index.html"
  }, 
  {
    "country": "United States", 
    "id": "0a63356d34441b12fd4e", 
    "latitude": 40.707006, 
    "locality": "New York", 
    "longitude": -74.007239, 
    "name": "Little Caesars Pizza", 
    "phone": "2124828280", 
    "postal_code": "", 
    "region": "NY", 
    "street_address": "90 Maiden Ln.", 
    "website": ""
  }, 
  {
    "country": "United States", 
    "id": "d4ed6dd61b75f59b8495", 
    "latitude": 40.805505, 
    "locality": "New York", 
    "longitude": -73.940457, 
    "name": "Manna's Restaurant", 
    "phone": "2123604975", 
    "postal_code": "10035", 
    "region": "NY", 
    "street_address": "54 East 125th St.", 
    "website": "http://www.soulfood.com/"
  }, 
  {
    "country": "United States", 
    "id": "28e50b80e73afb5a203e", 
    "latitude": 40.670594, 
    "locality": "New York", 
    "longitude": -73.97828, 
    "name": "Ocean Fish Market", 
    "phone": "7184991454", 
    "postal_code": "11215", 
    "region": "NY", 
    "street_address": "203 7th Ave.", 
    "website": ""
  }, 
  {
    "country": "United States", 
    "id": "12d36cff1939f506725f", 
    "latitude": 40.744682, 
    "locality": "New York", 
    "longitude": -73.987298, 
    "name": "Kingsway Boxing", 
    "phone": "2126793427", 
    "postal_code": "10010", 
    "region": "NY", 
    "street_address": "1 West 28th St. #2", 
    "website": "http://www.kingswaygym.com/"
  }, 
  {
    "country": "United States", 
    "id": "447ec69188eb38881d36", 
    "latitude": 40.742067, 
    "locality": "New York", 
    "longitude": -74.003643, 
    "name": "Electric Room", 
    "phone": "2122291269", 
    "postal_code": "10011", 
    "region": "NY", 
    "street_address": "355 West 16th St.", 
    "website": "http://www.electricroomnyc.com/"
  }, 
  {
    "country": "United States", 
    "id": "b5df6c6b615731dcaa14", 
    "latitude": 40.72774, 
    "locality": "New York", 
    "longitude": -74.001324, 
    "name": "Miss Lily's", 
    "phone": "6465885375", 
    "postal_code": "10012", 
    "region": "NY", 
    "street_address": "130-132 W. Houston St.", 
    "website": "http://www.misslilysnyc.com"
  }, 
  {
    "country": "United States", 
    "id": "5cf740cd2f459b3adf4a", 
    "latitude": 40.755215, 
    "locality": "New York", 
    "longitude": -73.980984, 
    "name": "Jewel of India", 
    "phone": "2128695544", 
    "postal_code": "10036", 
    "region": "NY", 
    "street_address": "15 W. 44th St.", 
    "website": "http://jewelofindianyc.com"
  }, 
  {
    "country": "United States", 
    "id": "08878dd2e0ab99ed1bf1", 
    "latitude": 40.717488, 
    "locality": "New York", 
    "longitude": -74.005916, 
    "name": "66", 
    "phone": "2129250202", 
    "postal_code": "10013", 
    "region": "NY", 
    "street_address": "241 Church St.", 
    "website": ""
  }, 
  {
    "country": "United States", 
    "id": "922778c75ad7ea7b4905", 
    "latitude": 40.739037, 
    "locality": "New York", 
    "longitude": -73.989666, 
    "name": "Wasabi Kikaku Inc", 
    "phone": "2127777772", 
    "postal_code": "10003", 
    "region": "NY", 
    "street_address": "30 E. 20th St. # 202", 
    "website": "http://www.wasabikikaku.com/"
  }, 
  {
    "country": "United States", 
    "id": "b8aadf5e377021ad9e4c", 
    "latitude": 40.737866, 
    "locality": "New York", 
    "longitude": -73.980721, 
    "name": "Cabrera International", 
    "phone": "2125451076", 
    "postal_code": "10010", 
    "region": "NY", 
    "street_address": "309 East 23rd St.", 
    "website": ""
  }, 
  {
    "country": "United States", 
    "id": "05691d45685424609871", 
    "latitude": 40.735973, 
    "locality": "New York", 
    "longitude": -74.000618, 
    "name": "Original Sandwich Shoppe Inc", 
    "phone": "2122552237", 
    "postal_code": "10011", 
    "region": "NY", 
    "street_address": "58 Greenwich Ave.", 
    "website": ""
  }, 
  {
    "country": "United States", 
    "id": "38ea6a02e3641c40238b", 
    "latitude": 40.719866, 
    "locality": "New York", 
    "longitude": -73.995928, 
    "name": "Divalicious Chocolate Fountains", 
    "phone": "2123431243", 
    "postal_code": "10013", 
    "region": "NY", 
    "street_address": "365 Broome St.", 
    "website": "http://www.divaliciouschocolate.com"
  }, 
  {
    "country": "United States", 
    "id": "919f4e7970c60246981a", 
    "latitude": 40.7230298063774, 
    "locality": "New York", 
    "longitude": -73.9889399892055, 
    "name": "National Underground", 
    "phone": "2124750611", 
    "postal_code": "10002", 
    "region": "NY", 
    "street_address": "159 E. Houston St.", 
    "website": "http://www.thenationalunderground.com/newyorkvenue.html"
  }, 
  {
    "country": "United States", 
    "id": "a7b2b1dc9da8bcf394dc", 
    "latitude": 40.727073, 
    "locality": "New York", 
    "longitude": -73.988, 
    "name": "Rose of India", 
    "phone": "2125335011", 
    "postal_code": "10003", 
    "region": "NY", 
    "street_address": "308 E. 6th St.", 
    "website": ""
  }, 
  {
    "country": "United States", 
    "id": "4eb12f6a725e7cf7c8e6", 
    "latitude": 40.7728913989468, 
    "locality": "New York", 
    "longitude": -73.9525170468362, 
    "name": "Pizza Restaurant", 
    "phone": "", 
    "postal_code": "10028", 
    "region": "NY", 
    "street_address": "1526 1st Ave.", 
    "website": ""
  }, 
  {
    "country": "United States", 
    "id": "bdc2a8271a9f8ebf1ed5", 
    "latitude": 40.770313, 
    "locality": "New York", 
    "longitude": -73.991401, 
    "name": "Hair By Vincent", 
    "phone": "2129569309", 
    "postal_code": "10019", 
    "region": "NY", 
    "street_address": "601 West 57th St.", 
    "website": ""
  }, 
  {
    "country": "United States", 
    "id": "26ec8073ccc79a518e53", 
    "latitude": 40.748417, 
    "locality": "New York", 
    "longitude": -73.983359, 
    "name": "Burger King", 
    "phone": "2126794646", 
    "postal_code": "10016", 
    "region": "NY", 
    "street_address": "401 5th Ave.", 
    "website": "http://bk.com/"
  }, 
  {
    "country": "United States", 
    "id": "01d2d5a997e77ff01707", 
    "latitude": 40.71582, 
    "locality": "New York", 
    "longitude": -74.00493, 
    "name": "Baskin Robbins", 
    "phone": "2125777550", 
    "postal_code": "10007", 
    "region": "NY", 
    "street_address": "321 Broadway", 
    "website": "http://www.baskinrobbins.com/"
  }, 
  {
    "country": "United States", 
    "id": "24af14b35d71fdd21b1b", 
    "latitude": 40.76104, 
    "locality": "New York", 
    "longitude": -73.969802, 
    "name": "57 Napoli Pizza E Vino", 
    "phone": "2127504586", 
    "postal_code": "10022", 
    "region": "NY", 
    "street_address": "120 East 57th St.", 
    "website": "http://57napoli.com/"
  }, 
  {
    "country": "United States", 
    "id": "661d76421653c345fb73", 
    "latitude": 40.739944, 
    "locality": "New York", 
    "longitude": -74.005851, 
    "name": "Hotel Gansevoort", 
    "phone": "2122066700", 
    "postal_code": "10014", 
    "region": "NY", 
    "street_address": "18 9th Ave.", 
    "website": "http://www.hotelgansevoort.com/"
  }, 
  {
    "country": "United States", 
    "id": "f64c2dcace75cbe067f0", 
    "latitude": 40.797798, 
    "locality": "New York", 
    "longitude": -73.939599, 
    "name": "Tys Laundromat Inc", 
    "phone": "2127221788", 
    "postal_code": "10029", 
    "region": "NY", 
    "street_address": "215 East 116th St.", 
    "website": ""
  }, 
  {
    "country": "United States", 
    "id": "8609e17d1522da31db6d", 
    "latitude": 40.775537, 
    "locality": "New York", 
    "longitude": -73.980635, 
    "name": "Magnolia Columbus", 
    "phone": "2127248101", 
    "postal_code": "10023", 
    "region": "NY", 
    "street_address": "200 Columbus Ave.", 
    "website": "http://www.magnoliacupcakes.com/"
  }, 
  {
    "country": "United States", 
    "id": "2e3e7e94545ab1fd0021", 
    "latitude": 40.767539, 
    "locality": "New York", 
    "longitude": -73.983111, 
    "name": "Starbucks", 
    "phone": "2122650658", 
    "postal_code": "10019", 
    "region": "NY", 
    "street_address": "4 Columbus Cir.", 
    "website": "http://www.starbucks.com/"
  }, 
  {
    "country": "United States", 
    "id": "a9223dae52864b1ae958", 
    "latitude": 40.848336, 
    "locality": "New York", 
    "longitude": -73.93085, 
    "name": "Naville Beauty Salon Inc", 
    "phone": "9175211801", 
    "postal_code": "10033", 
    "region": "NY", 
    "street_address": "2440 Amsterdam Ave. # 4", 
    "website": ""
  }, 
  {
    "country": "United States", 
    "id": "b5572cb9e51852f9aab1", 
    "latitude": 40.725425, 
    "locality": "New York", 
    "longitude": -74.005917, 
    "name": "Mermaid Holding Co", 
    "phone": "2122428222", 
    "postal_code": "10013", 
    "region": "NY", 
    "street_address": "131 Varick St.", 
    "website": ""
  }, 
  {
    "country": "United States", 
    "id": "eb5cb40271d412b74ab7", 
    "latitude": 40.741463, 
    "locality": "New York", 
    "longitude": -73.991276, 
    "name": "Christopher Craubaugh In", 
    "phone": "6465599027", 
    "postal_code": "10010", 
    "region": "NY", 
    "street_address": "48 West 22nd St.", 
    "website": ""
  }, 
  {
    "country": "United States", 
    "id": "e2069c6955f3808bbc15", 
    "latitude": 40.731602, 
    "locality": "New York", 
    "longitude": -74.000999, 
    "name": "Le Frite Kot", 
    "phone": "2129792616", 
    "postal_code": "10012", 
    "region": "NY", 
    "street_address": "148 W. 4th St.", 
    "website": ""
  }, 
  {
    "country": "United States", 
    "id": "73728a29b171568e26d4", 
    "latitude": 40.724594, 
    "locality": "New York", 
    "longitude": -73.997466, 
    "name": "Mirskin Inc", 
    "phone": "2122199090", 
    "postal_code": "10012", 
    "region": "NY", 
    "street_address": "580 Broadway # 607", 
    "website": "http://mirskin.com/"
  }, 
  {
    "country": "United States", 
    "id": "cdca6ce02b5fa7d0354b", 
    "latitude": 40.748071, 
    "locality": "New York", 
    "longitude": -73.985063, 
    "name": "Chipotle Mexican Grill", 
    "phone": "2126950412", 
    "postal_code": "10118", 
    "region": "NY", 
    "street_address": "350 5th Ave. #4", 
    "website": "http://www.chipotle.com/"
  }, 
  {
    "country": "United States", 
    "id": "4796555942018e206d12", 
    "latitude": 40.715672, 
    "locality": "New York", 
    "longitude": -74.010972, 
    "name": "Gee Whiz", 
    "phone": "2126087200", 
    "postal_code": "10007", 
    "region": "NY", 
    "street_address": "295 Greenwich St.", 
    "website": "http://www.geewhizdiner.com/"
  }, 
  {
    "country": "United States", 
    "id": "fdc46e327356da88bd44", 
    "latitude": 40.778809, 
    "locality": "New York", 
    "longitude": -73.955762, 
    "name": "The Luxurey Sweet Penthouse", 
    "phone": "", 
    "postal_code": "10028", 
    "region": "NY", 
    "street_address": "1264 Lexington Ave.", 
    "website": ""
  }, 
  {
    "country": "United States", 
    "id": "79e1f47a83e7b96659b4", 
    "latitude": 40.743701, 
    "locality": "New York", 
    "longitude": -73.925537, 
    "name": "Pete's Grill", 
    "phone": "7189372220", 
    "postal_code": "11104", 
    "region": "NY", 
    "street_address": "39-14 Queens Blvd.", 
    "website": "http://www.petesgrill.com/"
  }, 
  {
    "country": "United States", 
    "id": "cf5c0c3850b153c65de0", 
    "latitude": 40.7572434516722, 
    "locality": "New York", 
    "longitude": -73.9897778767785, 
    "name": "South Philly Steaks", 
    "phone": "", 
    "postal_code": "10036", 
    "region": "NY", 
    "street_address": "", 
    "website": ""
  }, 
  {
    "country": "United States", 
    "id": "51e22ba807ddc2a59a21", 
    "latitude": 40.690304009742, 
    "locality": "New York", 
    "longitude": -73.9243083657591, 
    "name": "Dunkin' Donuts", 
    "phone": "7184539880", 
    "postal_code": "11221", 
    "region": "NY", 
    "street_address": "1285 Broadway", 
    "website": "http://www.dunkindonuts.com"
  }, 
  {
    "country": "United States", 
    "id": "8cc561482113d81a8c90", 
    "latitude": 40.7596684796281, 
    "locality": "New York", 
    "longitude": -73.9648749877854, 
    "name": "Dunkin Donuts", 
    "phone": "6314475473", 
    "postal_code": "10022", 
    "region": "NY", 
    "street_address": "1093 2nd Ave.", 
    "website": "http://www.dunkindonuts.com"
  }, 
  {
    "country": "United States", 
    "id": "e0011460cbeb477343e1", 
    "latitude": 40.72735, 
    "locality": "New York", 
    "longitude": -73.978161, 
    "name": "Friends And Queso", 
    "phone": "", 
    "postal_code": "10009", 
    "region": "NY", 
    "street_address": "621 E. 11th St.", 
    "website": ""
  }, 
  {
    "country": "United States", 
    "id": "be4252afb09c8038a7a7", 
    "latitude": 40.792881, 
    "locality": "New York", 
    "longitude": -73.963804, 
    "name": "Nana Pearl's Woodenspoon", 
    "phone": "2126657515", 
    "postal_code": "", 
    "region": "NY", 
    "street_address": "400 Central Park W.", 
    "website": ""
  }, 
  {
    "country": "United States", 
    "id": "8412dde0b5ae44d6d761", 
    "latitude": 40.779473, 
    "locality": "New York", 
    "longitude": -73.950385, 
    "name": "Genesis Bar & Restaurant", 
    "phone": "2123485500", 
    "postal_code": "10128", 
    "region": "NY", 
    "street_address": "1708 Second Ave.", 
    "website": "http://www.genesisbar.com"
  }, 
  {
    "country": "United States", 
    "id": "5bfc5cb93c364f469aa6", 
    "latitude": 40.7161181552429, 
    "locality": "New York", 
    "longitude": -74.0066438895595, 
    "name": "The Pumpkin Patch", 
    "phone": "", 
    "postal_code": "10007", 
    "region": "NY", 
    "street_address": "", 
    "website": ""
  }, 
  {
    "country": "United States", 
    "id": "b31ed758fc2c4d5e98a2", 
    "latitude": 40.801111, 
    "locality": "New York", 
    "longitude": -73.965215, 
    "name": "Dynasty Dry Cleaners", 
    "phone": "2128664688", 
    "postal_code": "10025", 
    "region": "NY", 
    "street_address": "961 Amsterdam Ave.", 
    "website": ""
  }, 
  {
    "country": "United States", 
    "id": "be4ea0b3e9a4d332b473", 
    "latitude": 40.737901, 
    "locality": "New York", 
    "longitude": -73.987822, 
    "name": "Chango", 
    "phone": "2124771500", 
    "postal_code": "10003", 
    "region": "NY", 
    "street_address": "239 Park Ave. South", 
    "website": ""
  }, 
  {
    "country": "United States", 
    "id": "524067d5b224c6ad120e", 
    "latitude": 40.7256429955982, 
    "locality": "New York", 
    "longitude": -74.006081521784, 
    "name": "Todd Hase Furniture, Inc.", 
    "phone": "2128719075", 
    "postal_code": "10013", 
    "region": "NY", 
    "street_address": "261 Spring St.", 
    "website": ""
  }, 
  {
    "country": "United States", 
    "id": "f57191f3c8c313d453f5", 
    "latitude": 40.7668939970648, 
    "locality": "New York", 
    "longitude": -73.9862311769564, 
    "name": "Pompanda Express", 
    "phone": "", 
    "postal_code": "10019", 
    "region": "NY", 
    "street_address": "855 9th Ave.", 
    "website": ""
  }, 
  {
    "country": "United States", 
    "id": "c58156618c687f826691", 
    "latitude": 40.704544, 
    "locality": "New York", 
    "longitude": -74.010913, 
    "name": "Luke's Lobster", 
    "phone": "2127471700", 
    "postal_code": "10004", 
    "region": "NY", 
    "street_address": "26 South William St.", 
    "website": "http://www.lukeslobster.com/"
  }, 
  {
    "country": "United States", 
    "id": "6de81bcc35130b336c0b", 
    "latitude": 40.717756, 
    "locality": "New York", 
    "longitude": -73.996331, 
    "name": "V Beauty Salon Inc", 
    "phone": "2126253001", 
    "postal_code": "10013", 
    "region": "NY", 
    "street_address": "75 Elizabeth St.", 
    "website": ""
  }, 
  {
    "country": "United States", 
    "id": "b23b4c6922803643864c", 
    "latitude": 40.727393, 
    "locality": "New York", 
    "longitude": -73.983569, 
    "name": "Dirt Candy", 
    "phone": "2122287732", 
    "postal_code": "10009", 
    "region": "NY", 
    "street_address": "430 East 9th St.", 
    "website": "http://dirtcandynyc.com"
  }, 
  {
    "country": "United States", 
    "id": "5bc28a12f4f022f88ede", 
    "latitude": 40.714269, 
    "locality": "New York", 
    "longitude": -74.005973, 
    "name": "Poolville Country Store", 
    "phone": "", 
    "postal_code": "10007", 
    "region": "NY", 
    "street_address": "", 
    "website": ""
  }, 
  {
    "country": "United States", 
    "id": "c7773625f77189af4b3a", 
    "latitude": 40.765686, 
    "locality": "New York", 
    "longitude": -73.965633, 
    "name": "Face Station", 
    "phone": "2122498866", 
    "postal_code": "10065", 
    "region": "NY", 
    "street_address": "855 Lexington Ave.", 
    "website": "http://facestation.com/"
  }, 
  {
    "country": "United States", 
    "id": "7c9b111d33a7e39378a0", 
    "latitude": 40.741341, 
    "locality": "New York", 
    "longitude": -73.98359, 
    "name": "Garryowen Club", 
    "phone": "", 
    "postal_code": "", 
    "region": "NY", 
    "street_address": "", 
    "website": ""
  }, 
  {
    "country": "United States", 
    "id": "7beaba212567b862d131", 
    "latitude": 40.741512, 
    "locality": "New York", 
    "longitude": -73.994876, 
    "name": "Barry's Bootcamp NYC", 
    "phone": "6465592721", 
    "postal_code": "10011", 
    "region": "NY", 
    "street_address": "135 West 20th St.", 
    "website": "http://www.barrysbootcamp.com/new-york-city.html"
  }, 
  {
    "country": "United States", 
    "id": "1f47c54b14066f836765", 
    "latitude": 40.708402, 
    "locality": "New York", 
    "longitude": -74.004788, 
    "name": "Frazier Foods", 
    "phone": "2125282930", 
    "postal_code": "", 
    "region": "NY", 
    "street_address": "52 Fulton St.", 
    "website": ""
  }, 
  {
    "country": "United States", 
    "id": "d1e4f460421b50454e6d", 
    "latitude": 40.7337872945445, 
    "locality": "New York", 
    "longitude": -73.9930352568626, 
    "name": "The Grey Dog", 
    "phone": "2124144739", 
    "postal_code": "10003", 
    "region": "NY", 
    "street_address": "90 University Pl.", 
    "website": "http://www.thegreydog.com"
  }, 
  {
    "country": "United States", 
    "id": "7351366c2b554873eb7d", 
    "latitude": 40.777875, 
    "locality": "New York", 
    "longitude": -73.956922, 
    "name": "LeChurro", 
    "phone": "6466495253", 
    "postal_code": "10028", 
    "region": "NY", 
    "street_address": "1236 Lexington Ave.", 
    "website": "http://lechurro.com/"
  }, 
  {
    "country": "United States", 
    "id": "54fe5a302188df365a74", 
    "latitude": 40.7202736094456, 
    "locality": "New York", 
    "longitude": -73.9986730328371, 
    "name": "ADstruc Caf\u00e9", 
    "phone": "", 
    "postal_code": "10013", 
    "region": "NY", 
    "street_address": "241 Centre St. (7th Floor)", 
    "website": ""
  }, 
  {
    "country": "United States", 
    "id": "8c6d25371d68bc12dcaf", 
    "latitude": 40.7633035908169, 
    "locality": "New York", 
    "longitude": -73.9801132527738, 
    "name": "London Hotel", 
    "phone": "", 
    "postal_code": "10019", 
    "region": "NY", 
    "street_address": "856 7th Ave.", 
    "website": ""
  }, 
  {
    "country": "United States", 
    "id": "0af208b971b41237efe1", 
    "latitude": 40.776016, 
    "locality": "New York", 
    "longitude": -73.98724, 
    "name": "Behold Cleaners", 
    "phone": "2124968718", 
    "postal_code": "10023", 
    "region": "NY", 
    "street_address": "140 W. End Ave. # 1l", 
    "website": ""
  }, 
  {
    "country": "United States", 
    "id": "0b86c7ad6b88eea6ed9f", 
    "latitude": 40.73309, 
    "locality": "New York", 
    "longitude": -73.99832, 
    "name": "Pink Elephant Club", 
    "phone": "2127771511", 
    "postal_code": "10011", 
    "region": "NY", 
    "street_address": "40 W. 8th St.", 
    "website": "http://pinkelephantclub.com/wordpress/"
  }, 
  {
    "country": "United States", 
    "id": "d807258f40a4ea9fd896", 
    "latitude": 40.759398, 
    "locality": "New York", 
    "longitude": -73.965505, 
    "name": "Pita Grill", 
    "phone": "2127501122", 
    "postal_code": "10022", 
    "region": "NY", 
    "street_address": "1083 2nd Ave.", 
    "website": "http://www.orderpitagrill.com"
  }, 
  {
    "country": "United States", 
    "id": "d9d0b0b0bfe1c3414095", 
    "latitude": 40.772903, 
    "locality": "New York", 
    "longitude": -73.964608, 
    "name": "A Bridal Hair & Makeup Salon", 
    "phone": "2125706500", 
    "postal_code": "10021", 
    "region": "NY", 
    "street_address": "927 Madison Ave.", 
    "website": "http://marinavance.com/"
  }, 
  {
    "country": "United States", 
    "id": "e498c17e2094c387d270", 
    "latitude": 40.7168360856747, 
    "locality": "New York", 
    "longitude": -74.0081112831831, 
    "name": "Edward's Restaurant", 
    "phone": "2122851155", 
    "postal_code": "10013", 
    "region": "NY", 
    "street_address": "136 W. Broadway", 
    "website": "http://edwardsnyc.com"
  }, 
  {
    "country": "United States", 
    "id": "f3be30677a8e5e7917f8", 
    "latitude": 40.757118, 
    "locality": "New York", 
    "longitude": -73.967636, 
    "name": "Casablanca Cafe", 
    "phone": "2127522221", 
    "postal_code": "", 
    "region": "NY", 
    "street_address": "231 E. 53rd St.", 
    "website": "http://www.casablancacafe.com"
  }, 
  {
    "country": "United States", 
    "id": "2e494e18f02b3dc84b05", 
    "latitude": 40.742195486968, 
    "locality": "New York", 
    "longitude": -73.9988738864339, 
    "name": "Stick&pop", 
    "phone": "6464814767", 
    "postal_code": "10011", 
    "region": "NY", 
    "street_address": "233 West 19th St.", 
    "website": ""
  }, 
  {
    "country": "United States", 
    "id": "04b367c42a5d2d237871", 
    "latitude": 40.7540029650161, 
    "locality": "New York", 
    "longitude": -73.9843797683716, 
    "name": "Aroma Espresso Bar @ Bryant Park Holiday Shops", 
    "phone": "2125331094", 
    "postal_code": "10018", 
    "region": "NY", 
    "street_address": "Bryant Park", 
    "website": "http://www.aromaus"
  }, 
  {
    "country": "United States", 
    "id": "caa77570d21e3c6616e0", 
    "latitude": 40.763669, 
    "locality": "New York", 
    "longitude": -73.975079, 
    "name": "FIFI Nail Salon and Spa NYC", 
    "phone": "2125816430", 
    "postal_code": "10019", 
    "region": "NY", 
    "street_address": "47 West 57th St. #5", 
    "website": "http://fifiinternationalnailspa.com/"
  }, 
  {
    "country": "United States", 
    "id": "9e39cc781757c594b39f", 
    "latitude": 40.724275, 
    "locality": "New York", 
    "longitude": -73.99082, 
    "name": "Mars Bar (Closed)", 
    "phone": "", 
    "postal_code": "10003", 
    "region": "NY", 
    "street_address": "25 East 1st St.", 
    "website": ""
  }, 
  {
    "country": "United States", 
    "id": "f8af82d2e72f32102318", 
    "latitude": 40.7582615344562, 
    "locality": "New York", 
    "longitude": -73.9662051200867, 
    "name": "Off The Wall Frozen Yogurt", 
    "phone": "9174630450", 
    "postal_code": "10022", 
    "region": "NY", 
    "street_address": "1053 2nd Ave.", 
    "website": "http://offthewallyogurt.com"
  }, 
  {
    "country": "United States", 
    "id": "bc835bea330ae1891be4", 
    "latitude": 40.731829, 
    "locality": "New York", 
    "longitude": -74.003128, 
    "name": "Cafe Vivaldi", 
    "phone": "2126917538", 
    "postal_code": "10014", 
    "region": "NY", 
    "street_address": "32 Jones St.", 
    "website": "http://caffevivaldi.com"
  }, 
  {
    "country": "United States", 
    "id": "8a2e868adc1e3912513b", 
    "latitude": 40.726378, 
    "locality": "New York", 
    "longitude": -73.977347, 
    "name": "Yang's Happy Wok", 
    "phone": "2122282555", 
    "postal_code": "10009", 
    "region": "NY", 
    "street_address": "175 Ave. C", 
    "website": ""
  }, 
  {
    "country": "United States", 
    "id": "6df251bdddd8be645a0f", 
    "latitude": 40.75137, 
    "locality": "New York", 
    "longitude": -74.0025436878204, 
    "name": "Rockit at Quo", 
    "phone": "2122685105", 
    "postal_code": "10001", 
    "region": "NY", 
    "street_address": "511 W. 28th St.", 
    "website": ""
  }, 
  {
    "country": "United States", 
    "id": "4212f593786da671980e", 
    "latitude": 40.778564453125, 
    "locality": "New York", 
    "longitude": -73.9476318359375, 
    "name": "biddy's Pub", 
    "phone": "2125344785", 
    "postal_code": "10128", 
    "region": "NY", 
    "street_address": "301 91st St.", 
    "website": "http://www.biddysnyc.com/"
  }, 
  {
    "country": "United States", 
    "id": "e37b06fda67d8601b951", 
    "latitude": 40.799395, 
    "locality": "New York", 
    "longitude": -73.943939, 
    "name": "D'Glamour Hair Stylist", 
    "phone": "2122891369", 
    "postal_code": "10029", 
    "region": "NY", 
    "street_address": "76 East 116th St.", 
    "website": ""
  }, 
  {
    "country": "United States", 
    "id": "ccbf9adc97f7957ad83a", 
    "latitude": 40.735616, 
    "locality": "New York", 
    "longitude": -73.998413, 
    "name": "The Famous Roio's Pizza", 
    "phone": "2122432253", 
    "postal_code": "10011", 
    "region": "NY", 
    "street_address": "465 6th Ave.", 
    "website": ""
  }, 
  {
    "country": "United States", 
    "id": "636d15335b8d61cc730e", 
    "latitude": 40.807772, 
    "locality": "New York", 
    "longitude": -73.945481, 
    "name": "2 West Variety On Beauty Supplies", 
    "phone": "2122893031", 
    "postal_code": "10027", 
    "region": "NY", 
    "street_address": "2 West 125th St.", 
    "website": ""
  }, 
  {
    "country": "United States", 
    "id": "f1564a1343f8f62cc964", 
    "latitude": 40.76457, 
    "locality": "New York", 
    "longitude": -73.973636, 
    "name": "Chattren II Corporation", 
    "phone": "2126913920", 
    "postal_code": "10010", 
    "region": "NY", 
    "street_address": "186 5th Ave.", 
    "website": ""
  }, 
  {
    "country": "United States", 
    "id": "be0506cba8aba52714b8", 
    "latitude": 40.765989, 
    "locality": "New York", 
    "longitude": -73.979298, 
    "name": "Bella Vita Pizzeria", 
    "phone": "2126647670", 
    "postal_code": "10019", 
    "region": "NY", 
    "street_address": "158 West 58th St.", 
    "website": "http://www.orderbellavita.com/"
  }, 
  {
    "country": "United States", 
    "id": "51aacc3dcc24fe8495f2", 
    "latitude": 40.714766, 
    "locality": "New York", 
    "longitude": -74.016198, 
    "name": "Financier Patisserie", 
    "phone": "2127863220", 
    "postal_code": "10080", 
    "region": "NY", 
    "street_address": "250 Vesey St.", 
    "website": "http://www.financierpastries.com/"
  }, 
  {
    "country": "United States", 
    "id": "4c9972b390237991bd5f", 
    "latitude": 40.7645626670511, 
    "locality": "New York", 
    "longitude": -73.9782307753812, 
    "name": "Angelo's Pizza", 
    "phone": "2123334333", 
    "postal_code": "10019", 
    "region": "NY", 
    "street_address": "117 W. 57th St.", 
    "website": "http://www.angelospizzany.com"
  }, 
  {
    "country": "United States", 
    "id": "ac1d8d9cdf6e2e9bfa33", 
    "latitude": 40.838573, 
    "locality": "New York", 
    "longitude": -73.939808, 
    "name": "El Nuevo Caridad Restaurant", 
    "phone": "2127811880", 
    "postal_code": "10040", 
    "region": "NY", 
    "street_address": "1618 Saint Nicholas Ave.", 
    "website": ""
  }, 
  {
    "country": "United States", 
    "id": "18176e280ae29e7000e3", 
    "latitude": 40.779541, 
    "locality": "New York", 
    "longitude": -73.977355, 
    "name": "M Salon", 
    "phone": "2128735255", 
    "postal_code": "10023", 
    "region": "NY", 
    "street_address": "324 Columbus Ave.", 
    "website": "http://www.msalonnyc.com/"
  }, 
  {
    "country": "United States", 
    "id": "26521a4857922f26762f", 
    "latitude": 40.725882, 
    "locality": "New York", 
    "longitude": -74.00847, 
    "name": "Mcgovern's Bar", 
    "phone": "", 
    "postal_code": "10013", 
    "region": "NY", 
    "street_address": "", 
    "website": ""
  }, 
  {
    "country": "United States", 
    "id": "78595981d7a444f172a4", 
    "latitude": 40.784321, 
    "locality": "New York", 
    "longitude": -73.973966, 
    "name": "Cafe Blossom", 
    "phone": "2128752600", 
    "postal_code": "10024", 
    "region": "NY", 
    "street_address": "466 Columbus Ave.", 
    "website": "http://blossomnyc.com/cafeblossom.php"
  }, 
  {
    "country": "United States", 
    "id": "d90d837b532d8b85af6c", 
    "latitude": 40.7402562886341, 
    "locality": "New York", 
    "longitude": -74.0079235570095, 
    "name": "Kiva Cafe", 
    "phone": "2122290898", 
    "postal_code": "10013", 
    "region": "NY", 
    "street_address": "229 Hudson St.", 
    "website": ""
  }, 
  {
    "country": "United States", 
    "id": "da4b9d3153f4360b279d", 
    "latitude": 40.7191158967135, 
    "locality": "New York", 
    "longitude": -74.0034303371494, 
    "name": "M1-5 Lounge", 
    "phone": "2129651701", 
    "postal_code": "10013", 
    "region": "NY", 
    "street_address": "52 Walker St.", 
    "website": "http://m1-5.com"
  }, 
  {
    "country": "United States", 
    "id": "b773f20af796c0ca0040", 
    "latitude": 40.7264931646313, 
    "locality": "New York", 
    "longitude": -74.0059380603521, 
    "name": "kbs+p Party Bus", 
    "phone": "", 
    "postal_code": "10014", 
    "region": "NY", 
    "street_address": "", 
    "website": ""
  }, 
  {
    "country": "United States", 
    "id": "2bd3959bb007ffff4d62", 
    "latitude": 40.723878, 
    "locality": "New York", 
    "longitude": -74.009554, 
    "name": "Tribeca Spa Of Tranquility", 
    "phone": "2122264141", 
    "postal_code": "10013", 
    "region": "NY", 
    "street_address": "462 Greenwich St.", 
    "website": "http://www.tribecaspaoftranquility.com/"
  }, 
  {
    "country": "United States", 
    "id": "09fbd72020b5e6891142", 
    "latitude": 40.74032, 
    "locality": "New York", 
    "longitude": -74.000432, 
    "name": "The House Of Reggie", 
    "phone": "", 
    "postal_code": "10011", 
    "region": "NY", 
    "street_address": "", 
    "website": ""
  }, 
  {
    "country": "United States", 
    "id": "4e4629b113cb73242df1", 
    "latitude": 40.7444305419922, 
    "locality": "New York", 
    "longitude": -73.995246887207, 
    "name": "Bawdy takes NY", 
    "phone": "", 
    "postal_code": "10011", 
    "region": "NY", 
    "street_address": "", 
    "website": ""
  }, 
  {
    "country": "United States", 
    "id": "6220776d16c5001665d2", 
    "latitude": 40.764909, 
    "locality": "New York", 
    "longitude": -73.978402, 
    "name": "Evolution Physical Therapy, P.C.", 
    "phone": "2122073177", 
    "postal_code": "10022", 
    "region": "NY", 
    "street_address": "136 East 57th St. #705", 
    "website": "http://www.myevolutionphysicaltherapy.com/"
  }, 
  {
    "country": "United States", 
    "id": "00256bab875a8d49ddc5", 
    "latitude": 40.731627, 
    "locality": "New York", 
    "longitude": -73.994692, 
    "name": "David Jean Louis", 
    "phone": "2122283247", 
    "postal_code": "10003", 
    "region": "NY", 
    "street_address": "35 East 8th St.", 
    "website": "http://www.jeanlouisdavid.com/"
  }, 
  {
    "country": "United States", 
    "id": "1814724a511f8cc1380f", 
    "latitude": 40.730421, 
    "locality": "New York", 
    "longitude": -74.0037749627431, 
    "name": "The Penthouse Lounge", 
    "phone": "", 
    "postal_code": "10014", 
    "region": "NY", 
    "street_address": "26 Leroy St.", 
    "website": ""
  }, 
  {
    "country": "United States", 
    "id": "8720b7918b9efab86d1e", 
    "latitude": 40.739742, 
    "locality": "New York", 
    "longitude": -73.98541, 
    "name": "Hayato New York", 
    "phone": "2126737373", 
    "postal_code": "10010", 
    "region": "NY", 
    "street_address": "125 E. 23rd St. # 2", 
    "website": "http://www.hayato-ny.com/"
  }, 
  {
    "country": "United States", 
    "id": "9d457b5da19d8d80dd72", 
    "latitude": 40.754302, 
    "locality": "New York", 
    "longitude": -73.967642, 
    "name": "Bally Total Fitness", 
    "phone": "2122659400", 
    "postal_code": "10019", 
    "region": "NY", 
    "street_address": "350 West 50th St.", 
    "website": "http://www.ballyfitness.com/"
  }, 
  {
    "country": "United States", 
    "id": "5c0af0536102d3709d85", 
    "latitude": 40.777934, 
    "locality": "New York", 
    "longitude": -73.95688, 
    "name": "Four Seasons Dry Cleaners", 
    "phone": "2128615662", 
    "postal_code": "10028", 
    "region": "NY", 
    "street_address": "1238 Lexington Ave.", 
    "website": ""
  }, 
  {
    "country": "United States", 
    "id": "d3c39d545f6bbdffdf1e", 
    "latitude": 40.762665, 
    "locality": "New York", 
    "longitude": -73.972076, 
    "name": "Starbucks", 
    "phone": "2127591569", 
    "postal_code": "10022", 
    "region": "NY", 
    "street_address": "600 Madison Ave.", 
    "website": "http://www.starbucks.com/"
  }, 
  {
    "country": "United States", 
    "id": "03cfd8615163b97ea5c1", 
    "latitude": 40.798579, 
    "locality": "New York", 
    "longitude": -73.941202, 
    "name": "Domino's Pizza", 
    "phone": "2128311024", 
    "postal_code": "10029", 
    "region": "NY", 
    "street_address": "153 East 116th St.", 
    "website": "http://pizza.dominos.com/new-york/new-york/10029/153-e-116th-st/?utm_source=google&utm_medium=organic&utm_campaign=localmaps"
  }, 
  {
    "country": "United States", 
    "id": "01ddd096f027501742b3", 
    "latitude": 40.866155, 
    "locality": "New York", 
    "longitude": -73.925772, 
    "name": "Inwood", 
    "phone": "2125678600", 
    "postal_code": "10034", 
    "region": "NY", 
    "street_address": "4797 Broadway", 
    "website": ""
  }, 
  {
    "country": "United States", 
    "id": "68c586ac8a0d41298ca2", 
    "latitude": 40.7469623075945, 
    "locality": "New York", 
    "longitude": -73.9848480610483, 
    "name": "Hangawi", 
    "phone": "2122130077", 
    "postal_code": "10001", 
    "region": "NY", 
    "street_address": "12 E. 32nd St.", 
    "website": "http://www.hangawirestaurant.com"
  }, 
  {
    "country": "United States", 
    "id": "f27b0d10b7542eb677a8", 
    "latitude": 40.727618, 
    "locality": "New York", 
    "longitude": -73.983665, 
    "name": "Exchange Alley", 
    "phone": "2122288525", 
    "postal_code": "10009", 
    "region": "NY", 
    "street_address": "424 East 9th St.", 
    "website": "http://www.exchangealleynyc.com"
  }, 
  {
    "country": "United States", 
    "id": "8429a6e0b719173d1433", 
    "latitude": 40.717489, 
    "locality": "New York", 
    "longitude": -73.998254, 
    "name": "La Bella Ferrara", 
    "phone": "2129667867", 
    "postal_code": "10013", 
    "region": "NY", 
    "street_address": "108 Mulberry St.", 
    "website": ""
  }, 
  {
    "country": "United States", 
    "id": "ef6a4d4ccf8e1894ff84", 
    "latitude": 40.719961, 
    "locality": "New York", 
    "longitude": -73.998532, 
    "name": "Saha Thai Cuisine", 
    "phone": "2129667886", 
    "postal_code": "10013", 
    "region": "NY", 
    "street_address": "227 Centre St.", 
    "website": ""
  }, 
  {
    "country": "United States", 
    "id": "307b25ab47356a2e5a85", 
    "latitude": 40.713088, 
    "locality": "New York", 
    "longitude": -74.00958, 
    "name": "Aroma Espresso Bar", 
    "phone": "2123460095", 
    "postal_code": "10007", 
    "region": "NY", 
    "street_address": "100 Church St.", 
    "website": "http://www.aroma.us"
  }, 
  {
    "country": "United States", 
    "id": "9bc9d8a9df42321a1d6a", 
    "latitude": 40.763636, 
    "locality": "New York", 
    "longitude": -73.975871, 
    "name": "Terrace Room At The Plaza", 
    "phone": "2127593000", 
    "postal_code": "10019", 
    "region": "NY", 
    "street_address": "768 5th Ave.", 
    "website": "http://www.fairmont.com/theplaza"
  }, 
  {
    "country": "United States", 
    "id": "6a9229daab68224356a3", 
    "latitude": 40.761366, 
    "locality": "New York", 
    "longitude": -73.968375, 
    "name": "Sitaras Fitness", 
    "phone": "2127029700", 
    "postal_code": "10155", 
    "region": "NY", 
    "street_address": "150 E. 58th St. # 1203", 
    "website": "http://www.sitarasinc.com/"
  }, 
  {
    "country": "United States", 
    "id": "f1e9fc4479b3d06fa104", 
    "latitude": 40.726436, 
    "locality": "New York", 
    "longitude": -73.989243, 
    "name": "Sea Thai Restaurant", 
    "phone": "2122285505", 
    "postal_code": "10003", 
    "region": "NY", 
    "street_address": "75 2nd Ave.", 
    "website": "http://spicenyc.net/"
  }, 
  {
    "country": "United States", 
    "id": "c69b08258f16605afefa", 
    "latitude": 40.773316, 
    "locality": "New York", 
    "longitude": -73.978209, 
    "name": "Plotnick Jessica", 
    "phone": "2126391259", 
    "postal_code": "10023", 
    "region": "NY", 
    "street_address": "75 Central Park W.", 
    "website": "http://www.cpwmedspa.com/"
  }, 
  {
    "country": "United States", 
    "id": "30e61802939647481f79", 
    "latitude": 40.763982, 
    "locality": "New York", 
    "longitude": -73.977586, 
    "name": "New York Diva Nails & Spa", 
    "phone": "2129573797", 
    "postal_code": "10019", 
    "region": "NY", 
    "street_address": "1389 6th Ave.", 
    "website": ""
  }, 
  {
    "country": "United States", 
    "id": "7921631d41c36f8528b1", 
    "latitude": 40.736821, 
    "locality": "New York", 
    "longitude": -73.987255, 
    "name": "Paul & Jimmy's Restaurant", 
    "phone": "2124759540", 
    "postal_code": "10003", 
    "region": "NY", 
    "street_address": "123 East 18th St.", 
    "website": "http://paulandjimmys.com"
  }, 
  {
    "country": "United States", 
    "id": "266c40cb8308946222da", 
    "latitude": 40.722582, 
    "locality": "New York", 
    "longitude": -73.992679, 
    "name": "Razor Shaves by Oscar - New York Barber", 
    "phone": "6467892528", 
    "postal_code": "10002", 
    "region": "NY", 
    "street_address": "9 Stanton St.", 
    "website": "http://www.hairdoneright.com/"
  }, 
  {
    "country": "United States", 
    "id": "1c4fcba3d7dbec5ebf3f", 
    "latitude": 40.735326, 
    "locality": "New York", 
    "longitude": -73.992538, 
    "name": "Ben Cohen Inc", 
    "phone": "2126777177", 
    "postal_code": "10003", 
    "region": "NY", 
    "street_address": "28 E. 14th St. # 14", 
    "website": ""
  }, 
  {
    "country": "United States", 
    "id": "b4a5a4c4a17fd902820e", 
    "latitude": 40.798009, 
    "locality": "New York", 
    "longitude": -73.940544, 
    "name": "Manik Restaurant Corporation", 
    "phone": "2128601121", 
    "postal_code": "10029", 
    "region": "NY", 
    "street_address": "184 East 116th St.", 
    "website": ""
  }, 
  {
    "country": "United States", 
    "id": "433ac74d7040c806975f", 
    "latitude": 40.721543, 
    "locality": "New York", 
    "longitude": -73.980415, 
    "name": "Chez Bergman", 
    "phone": "", 
    "postal_code": "11211", 
    "region": "NY", 
    "street_address": "63 N. 3rd", 
    "website": ""
  }, 
  {
    "country": "United States", 
    "id": "1106207c083ec65b7c30", 
    "latitude": 40.746125, 
    "locality": "New York", 
    "longitude": -73.977596, 
    "name": "Aji Sushi", 
    "phone": "2126862055", 
    "postal_code": "10016", 
    "region": "NY", 
    "street_address": "519 3rd Ave. # 5", 
    "website": "http://ajisushinyc.com/"
  }, 
  {
    "country": "United States", 
    "id": "a25c2cd9af1b340f795f", 
    "latitude": 40.805581, 
    "locality": "New York", 
    "longitude": -73.96584, 
    "name": "Bank Street Cafe & Caterers", 
    "phone": "2126633151", 
    "postal_code": "10025", 
    "region": "NY", 
    "street_address": "610 West 112th St.", 
    "website": ""
  }, 
  {
    "country": "United States", 
    "id": "c49b618712ad5f9a58ec", 
    "latitude": 40.76457, 
    "locality": "New York", 
    "longitude": -73.973636, 
    "name": "Ted Gibson", 
    "phone": "2126336333", 
    "postal_code": "10010", 
    "region": "NY", 
    "street_address": "184 5th Ave.", 
    "website": "http://www.tedgibsonbeauty.com/"
  }, 
  {
    "country": "United States", 
    "id": "6f4da055b0f515d2f592", 
    "latitude": 40.7222, 
    "locality": "New York", 
    "longitude": -73.9942, 
    "name": "PUBLIC", 
    "phone": "2123437011", 
    "postal_code": "10012", 
    "region": "NY", 
    "street_address": "210 Elizabeth St.", 
    "website": "http://www.public-nyc.com"
  }, 
  {
    "country": "United States", 
    "id": "b68da77ee5c98d6e1d55", 
    "latitude": 40.722747, 
    "locality": "New York", 
    "longitude": -74.008013, 
    "name": "Taste Of Hope 2013 #cohwine", 
    "phone": "", 
    "postal_code": "", 
    "region": "NY", 
    "street_address": "10 Desbrosses", 
    "website": ""
  }, 
  {
    "country": "United States", 
    "id": "749d43eeba6b2348bf5c", 
    "latitude": 40.756215, 
    "locality": "New York", 
    "longitude": -73.987425, 
    "name": "Mc D's", 
    "phone": "2128406250", 
    "postal_code": "10036", 
    "region": "NY", 
    "street_address": "220 West 42nd St. # 3", 
    "website": "http://www.mcdonalds.com/"
  }, 
  {
    "country": "United States", 
    "id": "09f365913e3f95717962", 
    "latitude": 40.7582610051923, 
    "locality": "New York", 
    "longitude": -73.9934105935882, 
    "name": "Theater Row", 
    "phone": "", 
    "postal_code": "10036", 
    "region": "NY", 
    "street_address": "410 West 42nd St.", 
    "website": ""
  }, 
  {
    "country": "United States", 
    "id": "5a3225b1f5ee5146a359", 
    "latitude": 40.7634789924717, 
    "locality": "New York", 
    "longitude": -73.9889112943608, 
    "name": "Uncle Mario's", 
    "phone": "", 
    "postal_code": "10019", 
    "region": "NY", 
    "street_address": "772 9th Ave.", 
    "website": ""
  }, 
  {
    "country": "United States", 
    "id": "11ed69dc18efe1266a2b", 
    "latitude": 40.771465, 
    "locality": "New York", 
    "longitude": -73.958989, 
    "name": "Bistro Le Steak", 
    "phone": "2125173800", 
    "postal_code": "10022", 
    "region": "NY", 
    "street_address": "1309 Third Ave.", 
    "website": "http://www.bistrolesteak.com/index.html"
  }, 
  {
    "country": "United States", 
    "id": "83b07fc4b00eaf63844e", 
    "latitude": null, 
    "locality": "New York", 
    "longitude": null, 
    "name": "Mica Bar 51", 
    "phone": "2128882453", 
    "postal_code": "10022", 
    "region": "NY", 
    "street_address": "252 E. 51st St.", 
    "website": "http://micabar.com/"
  }, 
  {
    "country": "United States", 
    "id": "a609a2e2efc63885dd53", 
    "latitude": 40.842435, 
    "locality": "New York", 
    "longitude": -73.937046, 
    "name": "Colombina Beauty Salon", 
    "phone": "2129284925", 
    "postal_code": "10032", 
    "region": "NY", 
    "street_address": "122 Audubon Ave.", 
    "website": ""
  }, 
  {
    "country": "United States", 
    "id": "883c625d2fe72270fc69", 
    "latitude": 40.774467, 
    "locality": "New York", 
    "longitude": -73.951078, 
    "name": "Metro Spa First Avenue Inc", 
    "phone": "2122888098", 
    "postal_code": "10028", 
    "region": "NY", 
    "street_address": "1584 1st Ave.", 
    "website": ""
  }, 
  {
    "country": "United States", 
    "id": "91b59a6b2ef1c2874455", 
    "latitude": 40.742634, 
    "locality": "New York", 
    "longitude": -74.00061, 
    "name": "Judy Restaurant", 
    "phone": "2122060609", 
    "postal_code": "10011", 
    "region": "NY", 
    "street_address": "169 8th Ave.", 
    "website": ""
  }, 
  {
    "country": "United States", 
    "id": "c4e9f49f63c42dede817", 
    "latitude": 40.740327, 
    "locality": "New York", 
    "longitude": -73.983684, 
    "name": "The Halal Food Truck", 
    "phone": "", 
    "postal_code": "10010", 
    "region": "NY", 
    "street_address": "E. 25th St. And Lexington", 
    "website": ""
  }, 
  {
    "country": "United States", 
    "id": "b339c48fd832cd86ddfe", 
    "latitude": 40.727895, 
    "locality": "New York", 
    "longitude": -74.000334, 
    "name": "Ok Fashion Town Cleaners Inc", 
    "phone": "2125050733", 
    "postal_code": "10012", 
    "region": "NY", 
    "street_address": "181 Thompson St. # 1", 
    "website": ""
  }, 
  {
    "country": "United States", 
    "id": "516a254e65069237bd38", 
    "latitude": 40.725998, 
    "locality": "New York", 
    "longitude": -73.977552, 
    "name": "Hollywood Hair Designers", 
    "phone": "2126742570", 
    "postal_code": "10009", 
    "region": "NY", 
    "street_address": "165 Ave. C", 
    "website": ""
  }, 
  {
    "country": "United States", 
    "id": "5186cb760055d7cad62d", 
    "latitude": 40.719159, 
    "locality": "New York", 
    "longitude": -74.00994, 
    "name": "Trattoria Cinque", 
    "phone": "2129650555", 
    "postal_code": "10013", 
    "region": "NY", 
    "street_address": "363 Greenwich St.", 
    "website": "http://www.trattoriacinquenyc.com"
  }, 
  {
    "country": "United States", 
    "id": "aeee50f3320f5acdd644", 
    "latitude": 40.72228, 
    "locality": "New York", 
    "longitude": -73.98313, 
    "name": "That Burger", 
    "phone": "6094150326", 
    "postal_code": "10009", 
    "region": "NY", 
    "street_address": "Idle Hands", 
    "website": "http://www.thatburger.com/"
  }, 
  {
    "country": "United States", 
    "id": "f78dd98d3e8b7df68c9b", 
    "latitude": 40.7372829060435, 
    "locality": "New York", 
    "longitude": -73.9909084453074, 
    "name": "Chop't Creative Salad", 
    "phone": "6463365527", 
    "postal_code": "10003", 
    "region": "NY", 
    "street_address": "24 E. 17th St.", 
    "website": "http://www.choptsalad.com"
  }, 
  {
    "country": "United States", 
    "id": "616c752e4bfca0197a95", 
    "latitude": 40.753129, 
    "locality": "New York", 
    "longitude": -73.974951, 
    "name": "Kenny Babbo's Escalade", 
    "phone": "", 
    "postal_code": "10170", 
    "region": "NY", 
    "street_address": "", 
    "website": ""
  }, 
  {
    "country": "United States", 
    "id": "4d1297fe76db9ac0d88a", 
    "latitude": 40.772072, 
    "locality": "New York", 
    "longitude": -73.955967, 
    "name": "Bossa Nova", 
    "phone": "2122492556", 
    "postal_code": "", 
    "region": "NY", 
    "street_address": "1484 2nd Ave.", 
    "website": ""
  }, 
  {
    "country": "United States", 
    "id": "c66dc5f46efaa98667a1", 
    "latitude": 40.744181, 
    "locality": "New York", 
    "longitude": -73.974797, 
    "name": "Eddy's Barber Shop", 
    "phone": "2128897210", 
    "postal_code": "10016", 
    "region": "NY", 
    "street_address": "344 E. 34th St.", 
    "website": ""
  }, 
  {
    "country": "United States", 
    "id": "c970dcbfe5463de9088c", 
    "latitude": 40.733875, 
    "locality": "New York", 
    "longitude": -74.002758, 
    "name": "Riviera Cafe", 
    "phone": "2129293250", 
    "postal_code": "10014", 
    "region": "NY", 
    "street_address": "225 W. 4th St.", 
    "website": "http://rivieracafeny.com/"
  }, 
  {
    "country": "United States", 
    "id": "605a62afef2e18188996", 
    "latitude": 40.7810613694248, 
    "locality": "New York", 
    "longitude": -73.9521718025208, 
    "name": "Mr wright Wine 3rd Ave Between 89 & 90", 
    "phone": "2127224564", 
    "postal_code": "10128", 
    "region": "NY", 
    "street_address": "3rd Ave.", 
    "website": ""
  }, 
  {
    "country": "United States", 
    "id": "b27be9fb13d3be97b577", 
    "latitude": 40.750555, 
    "locality": "New York", 
    "longitude": -73.982154, 
    "name": "Dermal Group Inc", 
    "phone": "2126850503", 
    "postal_code": "10016", 
    "region": "NY", 
    "street_address": "10 E. 38th St. # 10", 
    "website": ""
  }, 
  {
    "country": "United States", 
    "id": "c38fc0e8dcd40bd5c8c7", 
    "latitude": 42.977509, 
    "locality": "New York", 
    "longitude": -77.22023, 
    "name": "Julie Beauty Salon", 
    "phone": "7184982000", 
    "postal_code": "11212", 
    "region": "NY", 
    "street_address": "777 Saratoga Ave.", 
    "website": ""
  }, 
  {
    "country": "United States", 
    "id": "78c1f0e5a627c06f1de7", 
    "latitude": 40.78793, 
    "locality": "New York", 
    "longitude": -73.977486, 
    "name": "Kasbah BBQ & Grill Kosher Restaurant", 
    "phone": "2124961500", 
    "postal_code": "10024", 
    "region": "NY", 
    "street_address": "251 West 85th St.", 
    "website": "http://www.delikasbah.com/"
  }, 
  {
    "country": "United States", 
    "id": "73f874dcc487c4a38a63", 
    "latitude": 40.739453, 
    "locality": "New York", 
    "longitude": -74.002193, 
    "name": "Ipanema", 
    "phone": "2128070150", 
    "postal_code": "10011", 
    "region": "NY", 
    "street_address": "252 West 14th St. #1", 
    "website": ""
  }, 
  {
    "country": "United States", 
    "id": "bff5e9a20d81dd72d0e1", 
    "latitude": 40.730586, 
    "locality": "New York", 
    "longitude": -73.982734, 
    "name": "Ichibantei", 
    "phone": "8777314339", 
    "postal_code": "10009", 
    "region": "NY", 
    "street_address": "401 East 13th St.", 
    "website": "http://www.ichibanteinyc.com/"
  }, 
  {
    "country": "United States", 
    "id": "9ca58f731f03ca808b6e", 
    "latitude": 40.573516, 
    "locality": "New York", 
    "longitude": -74.116662, 
    "name": "Sparkle Nail", 
    "phone": "7186676666", 
    "postal_code": "10306", 
    "region": "NY", 
    "street_address": "52 New Dorp Plz. S.", 
    "website": ""
  }, 
  {
    "country": "United States", 
    "id": "9193aa7c299f67bb500e", 
    "latitude": 40.737405, 
    "locality": "New York", 
    "longitude": -74.000464, 
    "name": "Rosa's Pizza", 
    "phone": "2126844200", 
    "postal_code": "10016", 
    "region": "NY", 
    "street_address": "27 7th Ave.", 
    "website": ""
  }, 
  {
    "country": "United States", 
    "id": "e0c005b98a05df1db082", 
    "latitude": 40.806416, 
    "locality": "New York", 
    "longitude": -73.942262, 
    "name": "Renait Fifth Avenue Salon", 
    "phone": "2124818388", 
    "postal_code": "10016", 
    "region": "NY", 
    "street_address": "383 5th Ave. Ph", 
    "website": ""
  }, 
  {
    "country": "United States", 
    "id": "cbfd92b823c9fbc4b4a6", 
    "latitude": 40.719449, 
    "locality": "New York", 
    "longitude": -73.988768, 
    "name": "Mehanata", 
    "phone": "2126250981", 
    "postal_code": "10002", 
    "region": "NY", 
    "street_address": "113 Ludlow St.", 
    "website": "http://www.mehanata.com/"
  }, 
  {
    "country": "United States", 
    "id": "edb58a4f8a5faecf8172", 
    "latitude": 40.751695, 
    "locality": "New York", 
    "longitude": -73.98777, 
    "name": "Staghorn Steakhouse", 
    "phone": "2122394390", 
    "postal_code": "10018", 
    "region": "NY", 
    "street_address": "315 West 36th St.", 
    "website": "http://www.staghornsteakhouse.com"
  }, 
  {
    "country": "United States", 
    "id": "8a4d90dafba903673592", 
    "latitude": 40.714692, 
    "locality": "New York", 
    "longitude": -74.007634, 
    "name": "A Saffron Thread Fresh Indian", 
    "phone": "2126760313", 
    "postal_code": "10007", 
    "region": "NY", 
    "street_address": "98 Chambers St.", 
    "website": "http://saffronfreshindian.com/"
  }, 
  {
    "country": "United States", 
    "id": "c0ce150812313865e5fc", 
    "latitude": 40.736307, 
    "locality": "New York", 
    "longitude": -73.97899, 
    "name": "Lin Ling USA Inc", 
    "phone": "2123881580", 
    "postal_code": "10010", 
    "region": "NY", 
    "street_address": "379 1st Ave. # 1", 
    "website": ""
  }, 
  {
    "country": "United States", 
    "id": "747ae5749264bdd22d66", 
    "latitude": 40.764049, 
    "locality": "New York", 
    "longitude": -73.970808, 
    "name": "Gita Gabriel Inc", 
    "phone": "2124861539", 
    "postal_code": "10022", 
    "region": "NY", 
    "street_address": "30 E. 60th St. # 505", 
    "website": "http://gitagabriel.com/"
  }, 
  {
    "country": "United States", 
    "id": "66c08cdc04c5c1f746e6", 
    "latitude": 40.7665665853841, 
    "locality": "New York", 
    "longitude": -73.970775604248, 
    "name": "Some of The Girls 3rd Annual Afternoon Tea", 
    "phone": "", 
    "postal_code": "10065", 
    "region": "NY", 
    "street_address": "28 E. 63 St.", 
    "website": ""
  }, 
  {
    "country": "United States", 
    "id": "18199a7fe6c573947ebe", 
    "latitude": 40.741194, 
    "locality": "New York", 
    "longitude": -73.983079, 
    "name": "Luu's Baguette", 
    "phone": "2126798881", 
    "postal_code": "10010", 
    "region": "NY", 
    "street_address": "134 East 26th St.", 
    "website": ""
  }, 
  {
    "country": "United States", 
    "id": "545b17f2748c412edc5e", 
    "latitude": 40.732953, 
    "locality": "New York", 
    "longitude": -74.00444, 
    "name": "Whittemore House", 
    "phone": "2122428880", 
    "postal_code": "10014", 
    "region": "NY", 
    "street_address": "45 Grove St.", 
    "website": "http://www.whittemorehousesalon.com/"
  }, 
  {
    "country": "United States", 
    "id": "94147fc62c58e7c4cb1a", 
    "latitude": 40.7114930255893, 
    "locality": "New York", 
    "longitude": -74.0129388527038, 
    "name": "Bistro To Go on 48", 
    "phone": "", 
    "postal_code": "10007", 
    "region": "NY", 
    "street_address": "", 
    "website": ""
  }, 
  {
    "country": "United States", 
    "id": "0944648c147bf96780ff", 
    "latitude": 40.8451512123998, 
    "locality": "New York", 
    "longitude": -73.9380171266895, 
    "name": "Da Heights Lounge", 
    "phone": "", 
    "postal_code": "10033", 
    "region": "NY", 
    "street_address": "", 
    "website": ""
  }, 
  {
    "country": "United States", 
    "id": "3f8776f2a676898c1d19", 
    "latitude": 40.76395, 
    "locality": "New York", 
    "longitude": -73.974088, 
    "name": "Eastmore Cleaners", 
    "phone": "2122893386", 
    "postal_code": "10026", 
    "region": "NY", 
    "street_address": "1330 5th Ave. # 3", 
    "website": ""
  }, 
  {
    "country": "United States", 
    "id": "be65e977c3d8d458d5fb", 
    "latitude": 40.731319, 
    "locality": "New York", 
    "longitude": -74.002953, 
    "name": "Pizza Roma USA Inc", 
    "phone": "2129241970", 
    "postal_code": "10014", 
    "region": "NY", 
    "street_address": "259 Bleecker St.", 
    "website": "http://www.pizzaromanyc.com/"
  }, 
  {
    "country": "United States", 
    "id": "186ec74432d7e28e9bc0", 
    "latitude": 40.710499, 
    "locality": "New York", 
    "longitude": -74.015903, 
    "name": "Zen", 
    "phone": "2124323634", 
    "postal_code": "10280", 
    "region": "NY", 
    "street_address": "311 S. End Ave.", 
    "website": ""
  }, 
  {
    "country": "United States", 
    "id": "943def32341b5e5c9293", 
    "latitude": 40.7493985045715, 
    "locality": "New York", 
    "longitude": -73.9956946362211, 
    "name": "Kasteli Cafe", 
    "phone": "", 
    "postal_code": "10001", 
    "region": "NY", 
    "street_address": "372 8th Ave.", 
    "website": ""
  }, 
  {
    "country": "United States", 
    "id": "302dfee85174a22db0fe", 
    "latitude": 40.811314, 
    "locality": "New York", 
    "longitude": -73.95228, 
    "name": "Kilimanjaro Deli", 
    "phone": "", 
    "postal_code": "10027", 
    "region": "NY", 
    "street_address": "", 
    "website": ""
  }, 
  {
    "country": "United States", 
    "id": "9374a96de45bdcd5cc02", 
    "latitude": 40.706909, 
    "locality": "New York", 
    "longitude": -74.005051, 
    "name": "Walgreens Store New York", 
    "phone": "2128250761", 
    "postal_code": "10038", 
    "region": "NY", 
    "street_address": "200 Water St.", 
    "website": "http://www.walgreens.com/locator/Duane-Reade-200-WATER-ST-NEW-YORK-NY-10038/id=14436"
  }, 
  {
    "country": "United States", 
    "id": "b0c1bc2d0f0709b1a15f", 
    "latitude": 40.682818, 
    "locality": "New York", 
    "longitude": -73.59015, 
    "name": "Shake Shack", 
    "phone": "6464350135", 
    "postal_code": "11368", 
    "region": "NY", 
    "street_address": "Roosevelt Ave.", 
    "website": "http://shakeshack.com/"
  }, 
  {
    "country": "United States", 
    "id": "cab2fb718532dccb9637", 
    "latitude": 40.767447, 
    "locality": "New York", 
    "longitude": -73.955513, 
    "name": "Blooming Nail", 
    "phone": "2123273950", 
    "postal_code": "10021", 
    "region": "NY", 
    "street_address": "430 E. 72nd St. # 2", 
    "website": ""
  }, 
  {
    "country": "United States", 
    "id": "e05e975a0fdc3bb1b0e4", 
    "latitude": 40.8271675109863, 
    "locality": "New York", 
    "longitude": -73.9467697143555, 
    "name": "Cooking my awesome Foods (:", 
    "phone": "", 
    "postal_code": "10031", 
    "region": "NY", 
    "street_address": "", 
    "website": ""
  }, 
  {
    "country": "United States", 
    "id": "9305ca4d816868b3f861", 
    "latitude": 40.7877234139684, 
    "locality": "New York", 
    "longitude": -73.9435795760535, 
    "name": "Star Gourmet Deli - 2000 N.Y. Deli", 
    "phone": "2124269591", 
    "postal_code": "10029", 
    "region": "NY", 
    "street_address": "2000 2nd Ave.", 
    "website": ""
  }, 
  {
    "country": "United States", 
    "id": "f3d55820c2bb4a291e76", 
    "latitude": 40.72308, 
    "locality": "New York", 
    "longitude": -73.993796, 
    "name": "M and R Bar and Dining Room", 
    "phone": "2122260559", 
    "postal_code": "", 
    "region": "NY", 
    "street_address": "264 Elizabeth St.", 
    "website": ""
  }, 
  {
    "country": "United States", 
    "id": "1517980d84e7b4210d97", 
    "latitude": 40.72579, 
    "locality": "New York", 
    "longitude": -73.992705, 
    "name": "Mile End Sandwich", 
    "phone": "2125292990", 
    "postal_code": "10012", 
    "region": "NY", 
    "street_address": "53 Bond St.", 
    "website": "http://www.mileendbrooklyn.com/"
  }, 
  {
    "country": "United States", 
    "id": "930aaee98b34323f78d8", 
    "latitude": 40.734498, 
    "locality": "New York", 
    "longitude": -74.001184, 
    "name": "Highlands", 
    "phone": "2122292670", 
    "postal_code": "10014", 
    "region": "NY", 
    "street_address": "150 West 10th St.", 
    "website": "http://www.highlands-nyc.com/"
  }, 
  {
    "country": "United States", 
    "id": "4cb3fb8435f88824c6aa", 
    "latitude": 41.160464, 
    "locality": "New York", 
    "longitude": -73.863635, 
    "name": "Nail's by Deca", 
    "phone": "2126258537", 
    "postal_code": "10012", 
    "region": "NY", 
    "street_address": "50 Spring St.", 
    "website": ""
  }, 
  {
    "country": "United States", 
    "id": "374bd2c0aa9fb5b6648a", 
    "latitude": 40.756581, 
    "locality": "New York", 
    "longitude": -73.986156, 
    "name": "Broadway Teleprompter SRVC", 
    "phone": "2129449090", 
    "postal_code": "", 
    "region": "NY", 
    "street_address": "1501 Broadway", 
    "website": ""
  }, 
  {
    "country": "United States", 
    "id": "47abb39cdfc2e8d9cc51", 
    "latitude": 40.7185825671496, 
    "locality": "New York", 
    "longitude": -73.9900418679956, 
    "name": "Pop Karma", 
    "phone": "9176757450", 
    "postal_code": "10002", 
    "region": "NY", 
    "street_address": "95 Orchard St.", 
    "website": "http://www.popkarma.com"
  }, 
  {
    "country": "United States", 
    "id": "2f0d4b70a49a1d266fe8", 
    "latitude": 40.76133, 
    "locality": "New York", 
    "longitude": -73.987653, 
    "name": "Mont Blanc", 
    "phone": "2125829648", 
    "postal_code": "10019", 
    "region": "NY", 
    "street_address": "315 West 48th St.", 
    "website": "http://www.montblancrestaurant.com"
  }, 
  {
    "country": "United States", 
    "id": "7fbc9194555be7cf7d87", 
    "latitude": 40.762583, 
    "locality": "New York", 
    "longitude": -73.959604, 
    "name": "Focaccia Fiorentina", 
    "phone": "2125932223", 
    "postal_code": "10021", 
    "region": "NY", 
    "street_address": "400 East 64th St.", 
    "website": ""
  }, 
  {
    "country": "United States", 
    "id": "4300146bafa2e5a5032d", 
    "latitude": 40.733088, 
    "locality": "New York", 
    "longitude": -74.004165, 
    "name": "Joseph Coffaro Restaurant", 
    "phone": "2127412782", 
    "postal_code": "10014", 
    "region": "NY", 
    "street_address": "320 Bleecker St.", 
    "website": ""
  }, 
  {
    "country": "United States", 
    "id": "3e1758a6eb76f7bd1a4f", 
    "latitude": 40.7162328018508, 
    "locality": "New York", 
    "longitude": -73.9961385726929, 
    "name": "Cash's tent with 802.11n WiFi", 
    "phone": "", 
    "postal_code": "10013", 
    "region": "NY", 
    "street_address": "", 
    "website": ""
  }, 
  {
    "country": "United States", 
    "id": "a7b48d9a9bbc9b5fb2dc", 
    "latitude": 40.804434, 
    "locality": "New York", 
    "longitude": -73.966424, 
    "name": "NYC Green Cart", 
    "phone": "", 
    "postal_code": "10025", 
    "region": "NY", 
    "street_address": "2849 Broadway", 
    "website": ""
  }, 
  {
    "country": "United States", 
    "id": "5a085ccb37c02410fbe4", 
    "latitude": 40.747954, 
    "locality": "New York", 
    "longitude": -73.97126, 
    "name": "Fast Cut", 
    "phone": "2129494747", 
    "postal_code": "10017", 
    "region": "NY", 
    "street_address": "5 Tudor City Pl. # 1", 
    "website": ""
  }, 
  {
    "country": "United States", 
    "id": "79bf5e03983a5ddc8350", 
    "latitude": 40.729705, 
    "locality": "New York", 
    "longitude": -73.998774, 
    "name": "Vyne", 
    "phone": "2123538963", 
    "postal_code": "10012", 
    "region": "NY", 
    "street_address": "82 West 3rd St.", 
    "website": "http://www.vynenewyork.com/"
  }, 
  {
    "country": "United States", 
    "id": "9650a6415d1483688f26", 
    "latitude": 40.7603, 
    "locality": "New York", 
    "longitude": -73.981598, 
    "name": "Y and B Enterprises", 
    "phone": "2124899090", 
    "postal_code": "", 
    "region": "NY", 
    "street_address": "135 W. 50th St.", 
    "website": "http://www.pranzonyc.com"
  }, 
  {
    "country": "United States", 
    "id": "3b58ff7e2968d8663836", 
    "latitude": 40.757531, 
    "locality": "New York", 
    "longitude": -73.971213, 
    "name": "Wako International Corporation", 
    "phone": "2128322085", 
    "postal_code": "10022", 
    "region": "NY", 
    "street_address": "150 East 52nd St.", 
    "website": ""
  }, 
  {
    "country": "United States", 
    "id": "030d9755ac45aae8179a", 
    "latitude": 40.7410034, 
    "locality": "New York", 
    "longitude": -73.97846981, 
    "name": "Basal Deli & Grocery", 
    "phone": "2126794555", 
    "postal_code": "10016", 
    "region": "NY", 
    "street_address": "493 2nd Ave.", 
    "website": ""
  }, 
  {
    "country": "United States", 
    "id": "d9141695a158bc3412ca", 
    "latitude": 40.866353, 
    "locality": "New York", 
    "longitude": -73.924652, 
    "name": "Lotus Express", 
    "phone": "2125698899", 
    "postal_code": "10034", 
    "region": "NY", 
    "street_address": "4840 Broadway", 
    "website": ""
  }, 
  {
    "country": "United States", 
    "id": "7ae31d035d0df5e9a45b", 
    "latitude": 40.7411683839021, 
    "locality": "New York", 
    "longitude": -73.989479451487, 
    "name": "7 eleven", 
    "phone": "", 
    "postal_code": "10010", 
    "region": "NY", 
    "street_address": "333 E. 23rd St.", 
    "website": ""
  }, 
  {
    "country": "United States", 
    "id": "93efb0483ee2c0925b73", 
    "latitude": 40.7298913028115, 
    "locality": "New York", 
    "longitude": -74.0040099282695, 
    "name": "Cho's Grocery", 
    "phone": "", 
    "postal_code": "10014", 
    "region": "NY", 
    "street_address": "58 Carmine St.", 
    "website": ""
  }, 
  {
    "country": "United States", 
    "id": "9fa6f7f2332b1342092a", 
    "latitude": 40.733022, 
    "locality": "New York", 
    "longitude": -73.99787095, 
    "name": "Lizzie's Restaurant", 
    "phone": "2126775304", 
    "postal_code": "10011", 
    "region": "NY", 
    "street_address": "31 W. 8th St.", 
    "website": "http://lizziesnyc.com"
  }, 
  {
    "country": "United States", 
    "id": "c583d18591a9c5a89254", 
    "latitude": 40.737707, 
    "locality": "New York", 
    "longitude": -74.005863, 
    "name": "Bar Bolonat", 
    "phone": "", 
    "postal_code": "10014", 
    "region": "NY", 
    "street_address": "611 Hudson St.", 
    "website": ""
  }, 
  {
    "country": "United States", 
    "id": "fae3da1dc12d3a78de9d", 
    "latitude": 40.7501390578507, 
    "locality": "New York", 
    "longitude": -73.9948682520785, 
    "name": "Ichiban Japanese Restaurant", 
    "phone": "2122681888", 
    "postal_code": "10001", 
    "region": "NY", 
    "street_address": "409 8th Ave.", 
    "website": "http://www.ichibansushinyc.com"
  }, 
  {
    "country": "United States", 
    "id": "49ea175e2274a65d5dc0", 
    "latitude": 40.860656, 
    "locality": "New York", 
    "longitude": -73.9273, 
    "name": "Caribe Cleaners", 
    "phone": "2129428944", 
    "postal_code": "10040", 
    "region": "NY", 
    "street_address": "98 Nagle Ave.", 
    "website": ""
  }, 
  {
    "country": "United States", 
    "id": "65960679ec926c525e4d", 
    "latitude": 40.752064, 
    "locality": "New York", 
    "longitude": -73.982483, 
    "name": "Panera Bread", 
    "phone": "2129386950", 
    "postal_code": "10018", 
    "region": "NY", 
    "street_address": "452 5th Ave.", 
    "website": "http://www.panerabread.com/"
  }, 
  {
    "country": "United States", 
    "id": "d6f48fd5b13ab1b8513a", 
    "latitude": 40.7605955351289, 
    "locality": "New York", 
    "longitude": -73.9838781522501, 
    "name": "The Playwright Tavern", 
    "phone": "2122629263", 
    "postal_code": "10019", 
    "region": "NY", 
    "street_address": "202 W. 49th St.", 
    "website": "http://playwrighttavern.com"
  }, 
  {
    "country": "United States", 
    "id": "ec63be59c3a878252d27", 
    "latitude": 40.751706, 
    "locality": "New York", 
    "longitude": -73.972705, 
    "name": "Symphony Cleaners", 
    "phone": "2126820471", 
    "postal_code": "10017", 
    "region": "NY", 
    "street_address": "245 East 44th St.", 
    "website": "http://www.drycleaningnewyork.net/"
  }, 
  {
    "country": "United States", 
    "id": "3d466670f1cb9bafb7eb", 
    "latitude": 40.71466, 
    "locality": "New York", 
    "longitude": -74.010078, 
    "name": "Corner Gourmet 2 Inc", 
    "phone": "2124062200", 
    "postal_code": "10007", 
    "region": "NY", 
    "street_address": "66 West Broadway", 
    "website": ""
  }, 
  {
    "country": "United States", 
    "id": "a7204b0cdc217e8809cf", 
    "latitude": 40.737587862637, 
    "locality": "New York", 
    "longitude": -73.9911437404581, 
    "name": "The Square", 
    "phone": "", 
    "postal_code": "10003", 
    "region": "NY", 
    "street_address": "120 East 15th St.", 
    "website": ""
  }, 
  {
    "country": "United States", 
    "id": "53d5a38b6a359d34ea50", 
    "latitude": 40.740916, 
    "locality": "New York", 
    "longitude": -73.988087, 
    "name": "Dunkin' Donuts", 
    "phone": "2126445848", 
    "postal_code": "10010", 
    "region": "NY", 
    "street_address": "24 East 23rd St.", 
    "website": "http://www.dunkindonuts.com/"
  }, 
  {
    "country": "United States", 
    "id": "bcfc7af2e2c4720c3e7e", 
    "latitude": 42.376033, 
    "locality": "New York", 
    "longitude": -77.363765, 
    "name": "Snapple of Staten Island", 
    "phone": "7184425745", 
    "postal_code": "10305", 
    "region": "NY", 
    "street_address": "135 Mcclean Ave.", 
    "website": ""
  }, 
  {
    "country": "United States", 
    "id": "6386cbb1376e266252ee", 
    "latitude": 40.7916867018076, 
    "locality": "New York", 
    "longitude": -73.9440393447876, 
    "name": "Kentucky Fried Chicken", 
    "phone": "2124230599", 
    "postal_code": "10029", 
    "region": "NY", 
    "street_address": "1922 3rd Ave.", 
    "website": ""
  }, 
  {
    "country": "United States", 
    "id": "419809a68f42c1e9fbef", 
    "latitude": 40.728794, 
    "locality": "New York", 
    "longitude": -74.000435, 
    "name": "New Model Nail", 
    "phone": "2129955454", 
    "postal_code": "10012", 
    "region": "NY", 
    "street_address": "168 Bleecker St.", 
    "website": ""
  }, 
  {
    "country": "United States", 
    "id": "dfbf97a23697bda1f336", 
    "latitude": 40.759079, 
    "locality": "New York", 
    "longitude": -73.987968, 
    "name": "Frankie & Johnnie's Steakhouse", 
    "phone": "2129979494", 
    "postal_code": "10036", 
    "region": "NY", 
    "street_address": "269 West 45th St.", 
    "website": "http://www.frankieandjohnnies.com/"
  }, 
  {
    "country": "United States", 
    "id": "ab6992730f400ebd9dca", 
    "latitude": 40.762441, 
    "locality": "New York", 
    "longitude": -73.97457, 
    "name": "Vidal Sassoon", 
    "phone": "2125359200", 
    "postal_code": "10019", 
    "region": "NY", 
    "street_address": "7 W. 56th St.", 
    "website": "http://www.sassoon.com/?utm_source=lbc&utm_medium=map&utm_campaign=lbc"
  }, 
  {
    "country": "United States", 
    "id": "e1f0320e6e2743afbda5", 
    "latitude": 40.787381, 
    "locality": "New York", 
    "longitude": -73.97539, 
    "name": "Debi Nails", 
    "phone": "2127216700", 
    "postal_code": "10024", 
    "region": "NY", 
    "street_address": "528 Amsterdam Ave. # 528", 
    "website": ""
  }, 
  {
    "country": "United States", 
    "id": "7a38422b07a3e4747748", 
    "latitude": 40.738766, 
    "locality": "New York", 
    "longitude": -74.008891, 
    "name": "Simple Fare", 
    "phone": "2126914570", 
    "postal_code": "", 
    "region": "NY", 
    "street_address": "91 Horatio St.", 
    "website": ""
  }, 
  {
    "country": "United States", 
    "id": "040074b165eb2bc21b6c", 
    "latitude": 40.806416, 
    "locality": "New York", 
    "longitude": -73.942262, 
    "name": "Soft Parade", 
    "phone": "2123673778", 
    "postal_code": "10003", 
    "region": "NY", 
    "street_address": "89 5th Ave.", 
    "website": "http://www.thesoftparade.com/"
  }, 
  {
    "country": "United States", 
    "id": "4828cb332062f6f65592", 
    "latitude": 40.7643932601274, 
    "locality": "New York", 
    "longitude": -73.9919816184071, 
    "name": "Desi Deli", 
    "phone": "2123999007", 
    "postal_code": "10019", 
    "region": "NY", 
    "street_address": "724 10th Ave.", 
    "website": "http://desideli.com"
  }, 
  {
    "country": "United States", 
    "id": "80fd88b8fbe50c590601", 
    "latitude": 40.732439, 
    "locality": "New York", 
    "longitude": -73.998766, 
    "name": "North Square", 
    "phone": "2122541200", 
    "postal_code": "10011", 
    "region": "NY", 
    "street_address": "103 Waverly Pl.", 
    "website": "http://www.northsquareny.com"
  }, 
  {
    "country": "United States", 
    "id": "182875365fa3340e4cfc", 
    "latitude": 40.721779, 
    "locality": "New York", 
    "longitude": -73.990218, 
    "name": "Le Chateau Bow Wow", 
    "phone": "", 
    "postal_code": "10002", 
    "region": "NY", 
    "street_address": "57 Stanton St.", 
    "website": ""
  }, 
  {
    "country": "United States", 
    "id": "36b176294d9bb77d22ab", 
    "latitude": 40.775697, 
    "locality": "New York", 
    "longitude": -73.953537, 
    "name": "Jack Russell's Pub", 
    "phone": "2124722800", 
    "postal_code": "10028", 
    "region": "NY", 
    "street_address": "1591 2nd Ave.", 
    "website": "http://www.drinkingconsultantssince1998.com/"
  }, 
  {
    "country": "United States", 
    "id": "8ad9a228a7ea913cc9a4", 
    "latitude": 40.72449, 
    "locality": "New York", 
    "longitude": -73.998311, 
    "name": "Zoe", 
    "phone": "", 
    "postal_code": "10012", 
    "region": "NY", 
    "street_address": "90 Prince St.", 
    "website": ""
  }, 
  {
    "country": "United States", 
    "id": "4049481bdbb7ef04e899", 
    "latitude": 40.769271, 
    "locality": "New York", 
    "longitude": -73.954948, 
    "name": "Rectangles", 
    "phone": "2127447470", 
    "postal_code": "10021", 
    "region": "NY", 
    "street_address": "1431 1st Ave.", 
    "website": "http://www.rectanglesrestaurant.com/"
  }, 
  {
    "country": "United States", 
    "id": "6cbdccd82e59c0a1bf7b", 
    "latitude": 40.717823, 
    "locality": "New York", 
    "longitude": -73.993049, 
    "name": "New Feeling Corporation", 
    "phone": "2129661853", 
    "postal_code": "10002", 
    "region": "NY", 
    "street_address": "273 Grand St.", 
    "website": ""
  }, 
  {
    "country": "United States", 
    "id": "bddeb88b18ad16d14c5f", 
    "latitude": 40.707905, 
    "locality": "New York", 
    "longitude": -74.00602, 
    "name": "World Class Valet Incorporated", 
    "phone": "2125285917", 
    "postal_code": "10038", 
    "region": "NY", 
    "street_address": "99 John St.", 
    "website": ""
  }, 
  {
    "country": "United States", 
    "id": "bf0197f6b271c0d8bba1", 
    "latitude": 40.738536, 
    "locality": "New York", 
    "longitude": -73.999808, 
    "name": "Hollywood 2002", 
    "phone": "2127419680", 
    "postal_code": "10011", 
    "region": "NY", 
    "street_address": "204 West 14th St.", 
    "website": ""
  }, 
  {
    "country": "United States", 
    "id": "ca67978bcaf8b5862b4d", 
    "latitude": 40.714227, 
    "locality": "New York", 
    "longitude": -73.987612, 
    "name": "New Dumpling Town Inc", 
    "phone": "2126737260", 
    "postal_code": "10002", 
    "region": "NY", 
    "street_address": "217 East Broadway", 
    "website": ""
  }, 
  {
    "country": "United States", 
    "id": "a507e30b40f0c7c11d5d", 
    "latitude": 40.798685, 
    "locality": "New York", 
    "longitude": -73.963379, 
    "name": "Wash Well Coin Laundry", 
    "phone": "2126780744", 
    "postal_code": "10025", 
    "region": "NY", 
    "street_address": "922 Columbus Ave.", 
    "website": ""
  }, 
  {
    "country": "United States", 
    "id": "ea62b7dcd0c9b8251016", 
    "latitude": 40.750238, 
    "locality": "New York", 
    "longitude": -73.968776, 
    "name": "Ambassador Grill \u2013 ONE UN New York Hotel", 
    "phone": "2127025014", 
    "postal_code": "10017", 
    "region": "NY", 
    "street_address": "One United Nations Plaza", 
    "website": "http://www.millenniumhotels.com"
  }, 
  {
    "country": "United States", 
    "id": "044a45cdc9bac30cb07a", 
    "latitude": 40.851387, 
    "locality": "New York", 
    "longitude": -73.939533, 
    "name": "Sushi Yu 2", 
    "phone": "2127818833", 
    "postal_code": "10033", 
    "region": "NY", 
    "street_address": "827 West 181st St.", 
    "website": "http://www.sushiyuii.com/"
  }, 
  {
    "country": "United States", 
    "id": "98dc90d1c79d272ec00b", 
    "latitude": 40.798642, 
    "locality": "New York", 
    "longitude": -73.959787, 
    "name": "Sebco Laundry Systems Inc", 
    "phone": "2123161251", 
    "postal_code": "10025", 
    "region": "NY", 
    "street_address": "467 Central Park W.", 
    "website": ""
  }, 
  {
    "country": "United States", 
    "id": "b44a5d3c5b07627dc2ad", 
    "latitude": 40.7573644044655, 
    "locality": "New York", 
    "longitude": -73.9854850990733, 
    "name": "The Lodge @ 1515", 
    "phone": "2128466633", 
    "postal_code": "10036", 
    "region": "NY", 
    "street_address": "1515 Broadway", 
    "website": ""
  }, 
  {
    "country": "United States", 
    "id": "01172fcb6eac4e771b2e", 
    "latitude": 40.708787, 
    "locality": "New York", 
    "longitude": -74.005262, 
    "name": "Rubens Empandadas Inc", 
    "phone": "2129625330", 
    "postal_code": "10038", 
    "region": "NY", 
    "street_address": "64 Fulton St.", 
    "website": ""
  }, 
  {
    "country": "United States", 
    "id": "ade507b720a5a28e1322", 
    "latitude": 40.745902, 
    "locality": "New York", 
    "longitude": -73.975229, 
    "name": "Fabi's Hair Studio", 
    "phone": "2122133400", 
    "postal_code": "10016", 
    "region": "NY", 
    "street_address": "655 2nd Ave.", 
    "website": "http://stylistfabi.com/"
  }, 
  {
    "country": "United States", 
    "id": "a705de1167191188d7cd", 
    "latitude": 40.776947, 
    "locality": "New York", 
    "longitude": -73.952405, 
    "name": "Ivory Cleaners", 
    "phone": "2122493622", 
    "postal_code": "10028", 
    "region": "NY", 
    "street_address": "1632 2nd Ave.", 
    "website": ""
  }, 
  {
    "country": "United States", 
    "id": "18cd73c99b17c9e2541d", 
    "latitude": 40.75564, 
    "locality": "New York", 
    "longitude": -73.976069, 
    "name": "Supreme Truck Fusion", 
    "phone": "", 
    "postal_code": "", 
    "region": "NY", 
    "street_address": "", 
    "website": ""
  }, 
  {
    "country": "United States", 
    "id": "41ab1c34671b8e93139f", 
    "latitude": 42.741529, 
    "locality": "New York", 
    "longitude": -76.900233, 
    "name": "Panini Express", 
    "phone": "7186396015", 
    "postal_code": "11430", 
    "region": "NY", 
    "street_address": "John F. Kennedy International Airport", 
    "website": "http://www.paniniexpress.com/"
  }, 
  {
    "country": "United States", 
    "id": "9b27b4f5cf01655f037c", 
    "latitude": 40.755496, 
    "locality": "New York", 
    "longitude": -73.969378, 
    "name": "DEGREZIA RESTAURANT", 
    "phone": "2127505354", 
    "postal_code": "10022", 
    "region": "NY", 
    "street_address": "231 E. 50th St.", 
    "website": "http://www.degreziaristorante.com"
  }, 
  {
    "country": "United States", 
    "id": "bf8be34760806ca68045", 
    "latitude": 40.7775592803955, 
    "locality": "New York", 
    "longitude": -73.9488458633423, 
    "name": "Sedutto", 
    "phone": "2128761604", 
    "postal_code": "", 
    "region": "NY", 
    "street_address": "1666 1st Ave.", 
    "website": ""
  }, 
  {
    "country": "United States", 
    "id": "9a5533af175fffd6e853", 
    "latitude": 40.752459, 
    "locality": "New York", 
    "longitude": -73.993055, 
    "name": "Famous Famiglia Pizza", 
    "phone": "2125644144", 
    "postal_code": "10001", 
    "region": "NY", 
    "street_address": "488 8th Ave.", 
    "website": "http://myfamousfamiglia.com/"
  }, 
  {
    "country": "United States", 
    "id": "88ccc0f7b8415c564359", 
    "latitude": 40.753097, 
    "locality": "New York", 
    "longitude": -73.989762, 
    "name": "Kati Roll Co", 
    "phone": "2127306740", 
    "postal_code": "10018", 
    "region": "NY", 
    "street_address": "1011 Ave. Of The Americas", 
    "website": "http://www.thekatirollcompany.com/"
  }, 
  {
    "country": "United States", 
    "id": "01831e26c02c35720a8c", 
    "latitude": 40.751669, 
    "locality": "New York", 
    "longitude": -73.992373, 
    "name": "Miss Katherine Psyhic Reading", 
    "phone": "2125643033", 
    "postal_code": "", 
    "region": "NY", 
    "street_address": "249 W. 34th St.", 
    "website": ""
  }, 
  {
    "country": "United States", 
    "id": "dfd58dd95651a7e10566", 
    "latitude": 40.7237810580787, 
    "locality": "New York", 
    "longitude": -74.0055650601257, 
    "name": "Artifakt Bar & Lounge", 
    "phone": "", 
    "postal_code": "10013", 
    "region": "NY", 
    "street_address": "54 Watts St.", 
    "website": ""
  }, 
  {
    "country": "United States", 
    "id": "c73b4e365cbbd04f4aa6", 
    "latitude": 40.6604787143407, 
    "locality": "New York", 
    "longitude": -73.9306117605569, 
    "name": "Cafe Soul Jamaican Resturant", 
    "phone": "7187739353", 
    "postal_code": "11203", 
    "region": "NY", 
    "street_address": "875 Rutland Rd.", 
    "website": ""
  }, 
  {
    "country": "United States", 
    "id": "71b7200a54c9f1e92780", 
    "latitude": 40.851421, 
    "locality": "New York", 
    "longitude": -73.928286, 
    "name": "Grandma's Kosher Pizza", 
    "phone": "2129274895", 
    "postal_code": "10033", 
    "region": "NY", 
    "street_address": "2551 Amsterdam Ave.", 
    "website": ""
  }, 
  {
    "country": "United States", 
    "id": "fc6d07fe19545ff15e2d", 
    "latitude": 40.752286, 
    "locality": "New York", 
    "longitude": -73.985516, 
    "name": "Sixth Avenue Express Deli", 
    "phone": "2127688781", 
    "postal_code": "10018", 
    "region": "NY", 
    "street_address": "1020 Ave. Of The Americas", 
    "website": ""
  }, 
  {
    "country": "United States", 
    "id": "5d3ce110b586afabe58b", 
    "latitude": 40.770073, 
    "locality": "New York", 
    "longitude": -73.951398, 
    "name": "Tamiz Valet Service Inc", 
    "phone": "2127175519", 
    "postal_code": "10021", 
    "region": "NY", 
    "street_address": "500 East 77th St.", 
    "website": ""
  }, 
  {
    "country": "United States", 
    "id": "b21e1c05e3ec2eedc119", 
    "latitude": 40.751951, 
    "locality": "New York", 
    "longitude": -73.993877, 
    "name": "Olde Triangle Caterers", 
    "phone": "2126300241", 
    "postal_code": "", 
    "region": "NY", 
    "street_address": "5 Penn Plz.", 
    "website": ""
  }, 
  {
    "country": "United States", 
    "id": "35697f38f46abf826adf", 
    "latitude": 40.780514, 
    "locality": "New York", 
    "longitude": -73.717165, 
    "name": "J & J Harmony Cleaners Inc", 
    "phone": "2124209574", 
    "postal_code": "10003", 
    "region": "NY", 
    "street_address": "71 University Pl.", 
    "website": ""
  }, 
  {
    "country": "United States", 
    "id": "e78b40b71087988892e3", 
    "latitude": 40.74551, 
    "locality": "New York", 
    "longitude": -73.979077, 
    "name": "Le Parisien", 
    "phone": "2128895489", 
    "postal_code": "10016", 
    "region": "NY", 
    "street_address": "163 East 33rd St.", 
    "website": "http://leparisiennyc.com"
  }, 
  {
    "country": "United States", 
    "id": "234d0c3d4b40bbc35af4", 
    "latitude": 40.851018, 
    "locality": "New York", 
    "longitude": -73.93879, 
    "name": "Heights French Cleaners Inc", 
    "phone": "2129286923", 
    "postal_code": "10033", 
    "region": "NY", 
    "street_address": "812 W. 181st St. # 2", 
    "website": ""
  }, 
  {
    "country": "United States", 
    "id": "0ca4d6bcf0ac5bb329ca", 
    "latitude": 40.761401, 
    "locality": "New York", 
    "longitude": -73.967862, 
    "name": "Starbucks", 
    "phone": "2126440692", 
    "postal_code": "10022", 
    "region": "NY", 
    "street_address": "731 Lexington Ave.", 
    "website": "http://www.starbucks.com/"
  }, 
  {
    "country": "United States", 
    "id": "21d1ffab11280406a221", 
    "latitude": 40.763989, 
    "locality": "New York", 
    "longitude": -73.981304, 
    "name": "Janis Chakler Skin Care", 
    "phone": "6464363518", 
    "postal_code": "10019", 
    "region": "NY", 
    "street_address": "850 7th Ave.", 
    "website": "http://www.janischaklerskincare.com/"
  }, 
  {
    "country": "United States", 
    "id": "5333537b16b9e565e309", 
    "latitude": 40.7660887957562, 
    "locality": "New York", 
    "longitude": -73.9834075438497, 
    "name": "Balducci's Food Lover's Market", 
    "phone": "2126538320", 
    "postal_code": "10019", 
    "region": "NY", 
    "street_address": "301 W. 56th St.", 
    "website": ""
  }, 
  {
    "country": "United States", 
    "id": "f79e317502c70d569c7f", 
    "latitude": 40.7259913037186, 
    "locality": "New York", 
    "longitude": -74.0013300219526, 
    "name": "Birdbath Neighborhood Green Bakery", 
    "phone": "2126123066", 
    "postal_code": "10012", 
    "region": "NY", 
    "street_address": "160 Prince St.", 
    "website": ""
  }, 
  {
    "country": "United States", 
    "id": "29e379eb81897ebbc263", 
    "latitude": 40.7293726819538, 
    "locality": "New York", 
    "longitude": -73.9892506599426, 
    "name": "Cafe Fuego", 
    "phone": "2126777300", 
    "postal_code": "10003", 
    "region": "NY", 
    "street_address": "9 Saint Marks Pl.", 
    "website": "http://cafefuego.com/"
  }, 
  {
    "country": "United States", 
    "id": "9c288ff892c935651f1a", 
    "latitude": 40.764902, 
    "locality": "New York", 
    "longitude": -73.978081, 
    "name": "Peter Louis Salon", 
    "phone": "2123190019", 
    "postal_code": "10022", 
    "region": "NY", 
    "street_address": "143 East 57th St.", 
    "website": "http://www.peterlouis.com/"
  }, 
  {
    "country": "United States", 
    "id": "6cf89af641496bdb754a", 
    "latitude": 40.715138, 
    "locality": "New York", 
    "longitude": -73.993425, 
    "name": "Super Taste Chinese Restaurant", 
    "phone": "6462830999", 
    "postal_code": "10002", 
    "region": "NY", 
    "street_address": "26 Eldridge St.", 
    "website": "http://supertastenyc.com/"
  }, 
  {
    "country": "United States", 
    "id": "ba18ece8d158f2593b4e", 
    "latitude": 40.763678, 
    "locality": "New York", 
    "longitude": -73.971276, 
    "name": "Advanced Cosmetic Surgery of New York - Manhattan", 
    "phone": "2122060023", 
    "postal_code": "10022", 
    "region": "NY", 
    "street_address": "635 Madison Ave.", 
    "website": "http://www.advancedcosmeticsurgeryny.com/"
  }, 
  {
    "country": "United States", 
    "id": "4b31ecce539309496f49", 
    "latitude": 40.742379, 
    "locality": "New York", 
    "longitude": -73.985003, 
    "name": "Riff Raff's", 
    "phone": "2129517111", 
    "postal_code": "10010", 
    "region": "NY", 
    "street_address": "360 Park Ave. South", 
    "website": "http://www.riffraffsnyc.com/"
  }, 
  {
    "country": "United States", 
    "id": "2d2408d2da8bf37862da", 
    "latitude": 40.7669566209703, 
    "locality": "New York", 
    "longitude": -73.9646601676941, 
    "name": "Ebony Escorts NYC", 
    "phone": "9173794224", 
    "postal_code": "10021", 
    "region": "NY", 
    "street_address": "", 
    "website": ""
  }, 
  {
    "country": "United States", 
    "id": "590ba2e6bf090d7d43a8", 
    "latitude": 40.7602433848416, 
    "locality": "New York", 
    "longitude": -73.9764745451004, 
    "name": "Soba Udon", 
    "phone": "", 
    "postal_code": "", 
    "region": "NY", 
    "street_address": "W. 52nd St.", 
    "website": ""
  }, 
  {
    "country": "United States", 
    "id": "40dcc925cdb0e59b3ec3", 
    "latitude": 40.76395, 
    "locality": "New York", 
    "longitude": -73.974088, 
    "name": "Caudalie Vinotherapie Spa", 
    "phone": "2123083550", 
    "postal_code": "10019", 
    "region": "NY", 
    "street_address": "1 West 58th St.", 
    "website": "http://www.caudalie-usa.com/"
  }, 
  {
    "country": "United States", 
    "id": "c4711fe033dcef90e70a", 
    "latitude": 40.735956, 
    "locality": "New York", 
    "longitude": -74.001563, 
    "name": "Quick Coin Four Inc", 
    "phone": "2122069989", 
    "postal_code": "10011", 
    "region": "NY", 
    "street_address": "178 7th Ave. # 1", 
    "website": ""
  }, 
  {
    "country": "United States", 
    "id": "740730f95ae283e7edb3", 
    "latitude": 40.7947654724121, 
    "locality": "New York", 
    "longitude": -73.9673004150391, 
    "name": "Loco 8 Bar", 
    "phone": "", 
    "postal_code": "", 
    "region": "NY", 
    "street_address": "", 
    "website": ""
  }, 
  {
    "country": "United States", 
    "id": "6593ece8508b23f77814", 
    "latitude": 40.717788, 
    "locality": "New York", 
    "longitude": -74.005626, 
    "name": "Mrf Deli Restaurant Corporation", 
    "phone": "2122193299", 
    "postal_code": "10013", 
    "region": "NY", 
    "street_address": "251 Church St.", 
    "website": ""
  }, 
  {
    "country": "United States", 
    "id": "2b668062260de1d07fb1", 
    "latitude": 40.759304, 
    "locality": "New York", 
    "longitude": -73.9187890291214, 
    "name": "Great Eatery Inc", 
    "phone": "7187215000", 
    "postal_code": "11103", 
    "region": "NY", 
    "street_address": "31-78 Steinway St.", 
    "website": ""
  }, 
  {
    "country": "United States", 
    "id": "f2e8ddf969e9cacc99da", 
    "latitude": 40.702898, 
    "locality": "New York", 
    "longitude": -74.010241, 
    "name": "Besito", 
    "phone": "2129662030", 
    "postal_code": "11743", 
    "region": "NY", 
    "street_address": "402 New York Ave.", 
    "website": "http://www.besitomex.com/"
  }, 
  {
    "country": "United States", 
    "id": "44e21bbc0411729dd6d0", 
    "latitude": 40.748489, 
    "locality": "New York", 
    "longitude": -73.970799, 
    "name": "Tudor Garden Nail Salon", 
    "phone": "", 
    "postal_code": "10017", 
    "region": "NY", 
    "street_address": "25 Tudor City Pl. # 2", 
    "website": ""
  }, 
  {
    "country": "United States", 
    "id": "bf9647dc373e1c3718d6", 
    "latitude": 40.857977, 
    "locality": "New York", 
    "longitude": -73.930904, 
    "name": "Frairmont Creations LLC", 
    "phone": "2128891845", 
    "postal_code": "10001", 
    "region": "NY", 
    "street_address": "1201 Broadway # 903", 
    "website": ""
  }, 
  {
    "country": "United States", 
    "id": "d350c3ced0e47f624762", 
    "latitude": 40.727814, 
    "locality": "New York", 
    "longitude": -74.007407, 
    "name": "Eddie's Pizza Truck", 
    "phone": "", 
    "postal_code": "10023", 
    "region": "NY", 
    "street_address": "", 
    "website": ""
  }, 
  {
    "country": "United States", 
    "id": "49e1f7b24e09c3e33ede", 
    "latitude": 40.754722, 
    "locality": "New York", 
    "longitude": -73.968809, 
    "name": "La Cava", 
    "phone": "2122231206", 
    "postal_code": "10022", 
    "region": "NY", 
    "street_address": "939 2nd Ave.", 
    "website": "http://www.lacavanyc.com/"
  }, 
  {
    "country": "United States", 
    "id": "09b7171dfd703aa35dd1", 
    "latitude": 40.7152, 
    "locality": "New York", 
    "longitude": -74.0089, 
    "name": "Popeyes Chicken and Biscuits", 
    "phone": "2125873255", 
    "postal_code": "", 
    "region": "NY", 
    "street_address": "112 Chambers St.", 
    "website": ""
  }, 
  {
    "country": "United States", 
    "id": "1fb411f1d552e2e5bb7f", 
    "latitude": 40.7539928423255, 
    "locality": "New York", 
    "longitude": -73.975774344243, 
    "name": "Hatsuhana Park", 
    "phone": "2126613400", 
    "postal_code": "10017", 
    "region": "NY", 
    "street_address": "237 Park Ave.", 
    "website": "http://www.hatsuhanaparkavenyc.com"
  }, 
  {
    "country": "United States", 
    "id": "37ad854051ce19cc298c", 
    "latitude": 40.722829, 
    "locality": "New York", 
    "longitude": -73.995909, 
    "name": "Cake-o", 
    "phone": "2129254445", 
    "postal_code": "10012", 
    "region": "NY", 
    "street_address": "234 Mulberry St.", 
    "website": "http://www.cake-o.com"
  }, 
  {
    "country": "United States", 
    "id": "edc06f614e13372a4faf", 
    "latitude": 40.73644, 
    "locality": "New York", 
    "longitude": -74.006019, 
    "name": "Lievito pizzeria", 
    "phone": "2126455811", 
    "postal_code": "10014", 
    "region": "NY", 
    "street_address": "581 Hudson", 
    "website": "http://www.lievitopizzeria.com"
  }, 
  {
    "country": "United States", 
    "id": "57cf4991db5cc8be9936", 
    "latitude": 40.740922, 
    "locality": "New York", 
    "longitude": -73.985841, 
    "name": "Daily Soup", 
    "phone": "2122287993", 
    "postal_code": "10010", 
    "region": "NY", 
    "street_address": "325 Park Ave. S.", 
    "website": "http://www.dailysoup.com/"
  }, 
  {
    "country": "United States", 
    "id": "4a26aca4089d7cc99963", 
    "latitude": 40.8023223876953, 
    "locality": "New York", 
    "longitude": -73.944953918457, 
    "name": "private brazillian party. dig it", 
    "phone": "", 
    "postal_code": "10035", 
    "region": "NY", 
    "street_address": "", 
    "website": ""
  }, 
  {
    "country": "United States", 
    "id": "e9932561b7338baa1ba7", 
    "latitude": 40.729218, 
    "locality": "New York", 
    "longitude": -74.000961, 
    "name": "Ciao Italian Restaurant", 
    "phone": "2126738901", 
    "postal_code": "10012", 
    "region": "NY", 
    "street_address": "185 Bleecker St.", 
    "website": "http://www.ciaowest.com"
  }, 
  {
    "country": "United States", 
    "id": "fb96cd922554c157d3a1", 
    "latitude": 40.705565, 
    "locality": "New York", 
    "longitude": -74.008019, 
    "name": "Wall & Water", 
    "phone": "2126991700", 
    "postal_code": "10005", 
    "region": "NY", 
    "street_address": "75 Wall St.", 
    "website": "http://www.wallandwaterny.com"
  }, 
  {
    "country": "United States", 
    "id": "233868b360e10a234b47", 
    "latitude": 40.738689, 
    "locality": "New York", 
    "longitude": -73.980989, 
    "name": "Limon Restaurant", 
    "phone": "2122133343", 
    "postal_code": "10010", 
    "region": "NY", 
    "street_address": "238 East 24th St.", 
    "website": "http://limonrestaurantnewyork.com/"
  }, 
  {
    "country": "United States", 
    "id": "2b0030eb050723350a8c", 
    "latitude": 40.761039, 
    "locality": "New York", 
    "longitude": -73.987269, 
    "name": "Brazil Grill", 
    "phone": "2123079449", 
    "postal_code": "10036", 
    "region": "NY", 
    "street_address": "787 8th Ave.", 
    "website": "http://brazilgrill48.com"
  }, 
  {
    "country": "United States", 
    "id": "a64aac8fd8ffe442b80a", 
    "latitude": 40.74224, 
    "locality": "New York", 
    "longitude": -73.983808, 
    "name": "Jazz Standard", 
    "phone": "2125762232", 
    "postal_code": "10016", 
    "region": "NY", 
    "street_address": "116 E. 27th St.", 
    "website": "http://www.jazzstandard.net"
  }, 
  {
    "country": "United States", 
    "id": "dccbc7286ae7787f795b", 
    "latitude": 40.799354, 
    "locality": "New York", 
    "longitude": -73.962721, 
    "name": "Pretty Nail Salon", 
    "phone": "2122227840", 
    "postal_code": "10025", 
    "region": "NY", 
    "street_address": "943 Columbus Ave.", 
    "website": ""
  }, 
  {
    "country": "United States", 
    "id": "5a34084ad4035d349a75", 
    "latitude": 40.7364, 
    "locality": "New York", 
    "longitude": -73.988892, 
    "name": "Trevi Deli", 
    "phone": "2124734493", 
    "postal_code": "10003", 
    "region": "NY", 
    "street_address": "48 Union Square East", 
    "website": ""
  }, 
  {
    "country": "United States", 
    "id": "01fbb407f1d35118f8b9", 
    "latitude": 40.714987, 
    "locality": "New York", 
    "longitude": -73.998626, 
    "name": "ABC Chinese Restaurant", 
    "phone": "2123469390", 
    "postal_code": "10013", 
    "region": "NY", 
    "street_address": "34 Pell St.", 
    "website": ""
  }, 
  {
    "country": "United States", 
    "id": "187cd0a57c8a73cfdad4", 
    "latitude": 40.740576, 
    "locality": "New York", 
    "longitude": -73.990929, 
    "name": "Four Star General Cleaning Corp", 
    "phone": "2127419400", 
    "postal_code": "10010", 
    "region": "NY", 
    "street_address": "19 West 21st St.", 
    "website": "http://4starcleaning.com/"
  }, 
  {
    "country": "United States", 
    "id": "6143d53e474b953ae451", 
    "latitude": 40.775142, 
    "locality": "New York", 
    "longitude": -73.956644, 
    "name": "Taste Restaurant & Wine Bar", 
    "phone": "2127179798", 
    "postal_code": "10028", 
    "region": "NY", 
    "street_address": "1413 Third Ave.", 
    "website": "http://www.elizabar.com"
  }, 
  {
    "country": "United States", 
    "id": "cf2103efafd411e5cd36", 
    "latitude": 40.791065, 
    "locality": "New York", 
    "longitude": -73.945159, 
    "name": "Venus Beauty Corporation", 
    "phone": "2123692836", 
    "postal_code": "10029", 
    "region": "NY", 
    "street_address": "1906 3rd Ave. # 1056", 
    "website": ""
  }, 
  {
    "country": "United States", 
    "id": "4d99d389aed56c5763e9", 
    "latitude": 40.785288, 
    "locality": "New York", 
    "longitude": -73.955648, 
    "name": "Le Paris", 
    "phone": "2122890997", 
    "postal_code": "10128", 
    "region": "NY", 
    "street_address": "1312 Madison Ave.", 
    "website": "http://www.leparisbistrot.com/"
  }, 
  {
    "country": "United States", 
    "id": "7fd1b10aef85e621126f", 
    "latitude": 40.734296, 
    "locality": "New York", 
    "longitude": -74.007162, 
    "name": "Lotus Salon", 
    "phone": "2124621050", 
    "postal_code": "10014", 
    "region": "NY", 
    "street_address": "718 Greenwich St.", 
    "website": "http://www.lotussalonny.com/html/greenwich.html"
  }, 
  {
    "country": "United States", 
    "id": "f1a683f11d1243992f35", 
    "latitude": 40.704988, 
    "locality": "New York", 
    "longitude": -74.009785, 
    "name": "Yorganic", 
    "phone": "2129689700", 
    "postal_code": "10004", 
    "region": "NY", 
    "street_address": "3 Hanover Square", 
    "website": "http://yorganicnyc.com/"
  }, 
  {
    "country": "United States", 
    "id": "eb93ad97c8126af3f133", 
    "latitude": 40.727128, 
    "locality": "New York", 
    "longitude": -73.989992, 
    "name": "Hair In the City", 
    "phone": "2122285009", 
    "postal_code": "10003", 
    "region": "NY", 
    "street_address": "219 East 5th St.", 
    "website": ""
  }, 
  {
    "country": "United States", 
    "id": "a7e4e7ac45e5723f3541", 
    "latitude": 40.7403, 
    "locality": "New York", 
    "longitude": -74.005598, 
    "name": "Bill's Bar & Burger", 
    "phone": "2124143003", 
    "postal_code": "10014", 
    "region": "NY", 
    "street_address": "22 9th Ave.", 
    "website": "http://www.billsbarandburger.com/"
  }, 
  {
    "country": "United States", 
    "id": "22aeefab5f873825cabd", 
    "latitude": 40.740596, 
    "locality": "New York", 
    "longitude": -73.989339, 
    "name": "Salon Canova", 
    "phone": "2124735593", 
    "postal_code": "10010", 
    "region": "NY", 
    "street_address": "942 Broadway", 
    "website": ""
  }, 
  {
    "country": "United States", 
    "id": "cc43da1b93604d959e67", 
    "latitude": 40.800325, 
    "locality": "New York", 
    "longitude": -73.965807, 
    "name": "Chung Wah Restaurant", 
    "phone": "2128647997", 
    "postal_code": "10025", 
    "region": "NY", 
    "street_address": "935 Amsterdam Ave. # 106", 
    "website": ""
  }, 
  {
    "country": "United States", 
    "id": "d298e3887009b084fa29", 
    "latitude": 40.70577, 
    "locality": "New York", 
    "longitude": -73.931839, 
    "name": "Shinobi Ramen", 
    "phone": "", 
    "postal_code": "11237", 
    "region": "NY", 
    "street_address": "53 Morgan Ave.", 
    "website": "http://shinobinoodle.blogspot.com/"
  }, 
  {
    "country": "United States", 
    "id": "4bd7246a7526012bf2df", 
    "latitude": 40.857977, 
    "locality": "New York", 
    "longitude": -73.930904, 
    "name": "Centro De Belleza Albania", 
    "phone": "2129425908", 
    "postal_code": "10034", 
    "region": "NY", 
    "street_address": "4876 Broadway # 204", 
    "website": ""
  }, 
  {
    "country": "United States", 
    "id": "6587c72487e49cd165e0", 
    "latitude": 40.749539, 
    "locality": "New York", 
    "longitude": -73.977435, 
    "name": "Murray Hill Dry Cleaner", 
    "phone": "2126826855", 
    "postal_code": "10016", 
    "region": "NY", 
    "street_address": "129 East 39th St.", 
    "website": ""
  }, 
  {
    "country": "United States", 
    "id": "8bb064a614c4866beaea", 
    "latitude": 40.751879, 
    "locality": "New York", 
    "longitude": -73.974106, 
    "name": "Five Guys Burgers and Fries", 
    "phone": "6467835060", 
    "postal_code": "10017", 
    "region": "NY", 
    "street_address": "690 3rd Ave.", 
    "website": "http://www.fiveguys.com/"
  }, 
  {
    "country": "United States", 
    "id": "d9537beb66f9f2aac1ad", 
    "latitude": 40.751479, 
    "locality": "New York", 
    "longitude": -73.987908, 
    "name": "Wink Eyelash", 
    "phone": "2125949465", 
    "postal_code": "10018", 
    "region": "NY", 
    "street_address": "128 West 36th St.", 
    "website": "http://www.winkeyelash.com/"
  }, 
  {
    "country": "United States", 
    "id": "0596be1ee8194c628f4e", 
    "latitude": 40.714974, 
    "locality": "New York", 
    "longitude": -74.0080459911111, 
    "name": "Dale Earnhardt Jr Jr's House", 
    "phone": "", 
    "postal_code": "", 
    "region": "NY", 
    "street_address": "", 
    "website": ""
  }, 
  {
    "country": "United States", 
    "id": "a53a15c0b0d206b0075a", 
    "latitude": 40.800856, 
    "locality": "New York", 
    "longitude": -73.944161, 
    "name": "Oxford Cleaners", 
    "phone": "2128766638", 
    "postal_code": "10035", 
    "region": "NY", 
    "street_address": "1791 Madison Ave.", 
    "website": ""
  }, 
  {
    "country": "United States", 
    "id": "d258ff5f83e58d411e6f", 
    "latitude": 40.740704, 
    "locality": "New York", 
    "longitude": -73.991469, 
    "name": "Barbering By Marcus (@Alma G Salon)", 
    "phone": "6463272929", 
    "postal_code": "10010", 
    "region": "NY", 
    "street_address": "38 East 21st St.", 
    "website": "http://www.barberingbymarcus.com/"
  }, 
  {
    "country": "United States", 
    "id": "c7b6eb8be8d8fb8e98c6", 
    "latitude": 40.7201011960099, 
    "locality": "New York", 
    "longitude": -73.9956028159367, 
    "name": "Zusel's French Bread Co.", 
    "phone": "", 
    "postal_code": "10012", 
    "region": "NY", 
    "street_address": "362 Broome St.", 
    "website": ""
  }, 
  {
    "country": "United States", 
    "id": "c5d0d177ae0631a4d60f", 
    "latitude": 40.805386, 
    "locality": "New York", 
    "longitude": -73.949093, 
    "name": "Lavette Hair Salon", 
    "phone": "2126652487", 
    "postal_code": "10027", 
    "region": "NY", 
    "street_address": "161 West 120th St.", 
    "website": ""
  }, 
  {
    "country": "United States", 
    "id": "45924c61a6e76401a34f", 
    "latitude": 40.829216, 
    "locality": "New York", 
    "longitude": -73.948375, 
    "name": "Tonalli Caf\u00e9 & Bar", 
    "phone": "2129260399", 
    "postal_code": "10031", 
    "region": "NY", 
    "street_address": "3628 Broadway", 
    "website": ""
  }, 
  {
    "country": "United States", 
    "id": "85c01bb5c538231cd2c5", 
    "latitude": 40.769502, 
    "locality": "New York", 
    "longitude": -73.960555, 
    "name": "THE Couch", 
    "phone": "", 
    "postal_code": "10021", 
    "region": "NY", 
    "street_address": "", 
    "website": ""
  }, 
  {
    "country": "United States", 
    "id": "5d0f19bd69a424c63102", 
    "latitude": 40.747641, 
    "locality": "New York", 
    "longitude": -73.99325, 
    "name": "The Triple Crown Ale House", 
    "phone": "2127361575", 
    "postal_code": "10001", 
    "region": "NY", 
    "street_address": "330 7th Ave.", 
    "website": "http://triplecrownnyc.com/"
  }, 
  {
    "country": "United States", 
    "id": "98213a8b5b76e161b1dd", 
    "latitude": 40.76177, 
    "locality": "New York", 
    "longitude": -73.981908, 
    "name": "Venti Black Tea Lemonade 4 Pump Classic", 
    "phone": "", 
    "postal_code": "10019", 
    "region": "NY", 
    "street_address": "", 
    "website": ""
  }, 
  {
    "country": "United States", 
    "id": "74d422d2aacd0ab2223a", 
    "latitude": 40.704249, 
    "locality": "New York", 
    "longitude": -74.011569, 
    "name": "Quiznos Sandwich Restaurants", 
    "phone": "2127857827", 
    "postal_code": "10004", 
    "region": "NY", 
    "street_address": "80 Broad St.", 
    "website": "http://www.quiznos.com/restaurants/NY/New%20York"
  }, 
  {
    "country": "United States", 
    "id": "e34c98f447b1b7dc1d1e", 
    "latitude": 40.756257, 
    "locality": "New York", 
    "longitude": -73.985233, 
    "name": "Brooklyn Hummus", 
    "phone": "", 
    "postal_code": "10036", 
    "region": "NY", 
    "street_address": "Moving Target", 
    "website": ""
  }, 
  {
    "country": "United States", 
    "id": "278dd7a1fa00e9187aa4", 
    "latitude": 40.855324, 
    "locality": "New York", 
    "longitude": -73.93724, 
    "name": "Next Door - NYC", 
    "phone": "2125432111", 
    "postal_code": "10033", 
    "region": "NY", 
    "street_address": "811 West 187<sup>th</sup> St.", 
    "website": "http://www.107west.com"
  }, 
  {
    "country": "United States", 
    "id": "474f8fbac38b1114439a", 
    "latitude": 40.7499052677574, 
    "locality": "New York", 
    "longitude": -73.9770427390049, 
    "name": "Bagel Express", 
    "phone": "", 
    "postal_code": "10016", 
    "region": "NY", 
    "street_address": "349 Lexington Ave.", 
    "website": ""
  }, 
  {
    "country": "United States", 
    "id": "3130f6fd989210a73c9a", 
    "latitude": 40.758918, 
    "locality": "New York", 
    "longitude": -73.988773, 
    "name": "Church's Chicken", 
    "phone": "2123159600", 
    "postal_code": "10036", 
    "region": "NY", 
    "street_address": "705 8th Ave.", 
    "website": "http://www.churchs.com/"
  }
]